_id,name,lat,lon
11016,稚内,45.415,141.6783
11151,沓形,45.1767,141.1383
11206,浜頓別,45.125,142.35
11291,北見枝幸,44.94,142.585
11316,歌登,44.84,142.48
11276,中頓別,44.965,142.28
11176,豊富,45.1067,141.765
11121,沼川,45.2483,141.8517
11001,宗谷岬,45.52,141.935
11076,浜鬼志別,45.335,142.17
11091,本泊,45.2417,141.1867
11061,声問,45.4033,141.8
11046,礼文,45.305,141.045
13011,幌延,45.0067,141.8517
12141,美深,44.48,142.3417
12181,名寄,44.37,142.4567
12217,西風連,44.295,142.3583
12231,下川,44.3017,142.6233
12261,士別,44.1867,142.4167
12411,上川,43.8467,142.7533
12442,旭川,43.7567,142.3717
12457,瑞穂,43.7367,142.6383
12607,白金,43.475,142.6483
12626,富良野,43.3333,142.4
12266,朝日,44.1183,142.595
12396,比布,43.875,142.48
12471,層雲峡,43.7533,142.93
12551,美瑛,43.5883,142.4933
12301,和寒,44.0283,142.41
12451,東川,43.7017,142.5083
12512,志比内,43.6433,142.5817
12691,幾寅,43.1683,142.5683
12746,占冠,42.9783,142.395
12596,上富良野,43.455,142.465
12386,江丹別,43.87,142.26
12041,音威子府,44.7267,142.265
12011,中川,44.8283,142.0767
12632,麓郷,43.3017,142.5217
12501,東神楽,43.67,142.4467
12066,小車,44.6083,142.295
12256,剣淵,44.1067,142.3533
12686,金山,43.1383,142.4167
15076,幌加内,44.01,142.16
15041,朱鞠内,44.2817,142.1617
13061,天塩,44.8933,141.7617
13086,遠別,44.7183,141.8067
13181,羽幌,44.3633,141.7
13277,留萌,43.945,141.6317
13311,増毛,43.8483,141.51
13206,古丹別,44.265,141.7217
13146,焼尻,44.4283,141.4217
13121,初山別,44.5233,141.77
13261,達布,44.0483,141.8567
13321,幌糠,43.8533,141.76
14101,新篠津,43.22,141.645
14116,山口,43.1467,141.2217
14157,手稲山,43.0833,141.2017
14163,札幌,43.06,141.3283
14191,小金湯,42.9633,141.2167
14206,恵庭島松,42.925,141.565
14286,支笏湖畔,42.7717,141.4067
14121,石狩,43.1933,141.37
14026,浜益,43.5817,141.3867
14071,厚田,43.3983,141.4367
14296,千歳,42.775,141.6917
14136,江別,43.11,141.6017
15116,石狩沼田,43.815,141.9267
15161,深川,43.7183,142.0733
15241,滝川,43.57,141.9383
15251,芦別,43.5167,142.19
15321,美唄,43.3633,141.8267
15356,岩見沢,43.2117,141.785
15431,長沼,43.0117,141.6933
15442,夕張,43.0383,141.9567
15311,月形,43.33,141.6183
15391,栗沢,43.1217,141.745
15231,空知吉野,43.595,141.7317
15276,浦臼,43.4283,141.81
15451,鹿島,43.08,142.1
15491,沼の沢,42.96,142.02
15216,新城,43.6117,142.2033
15247,赤平,43.5533,142.0667
15197,雨竜,43.66,141.8917
16026,美国,43.2717,140.5633
16076,余市,43.1817,140.7583
16091,小樽,43.1817,141.0167
16156,共和,42.98,140.6033
16206,蘭越,42.81,140.5417
16217,倶知安,42.9,140.7567
16252,寿都,42.795,140.2233
16286,喜茂別,42.7933,140.9483
16321,黒松内,42.6633,140.31
16281,真狩,42.775,140.88
16126,赤井川,43.0833,140.82
16061,神恵内,43.145,140.4233
16272,ニセコ,42.7783,140.6667
17036,雄武,44.58,142.9633
17076,興部,44.47,143.1083
17112,紋別,44.345,143.355
17166,湧別,44.2133,143.62
17196,滝上,44.1767,143.06
17211,上藻別,44.1883,143.3367
17246,常呂,44.115,144.0367
17306,遠軽,44.0533,143.54
17316,佐呂間,43.985,143.7233
17341,網走,44.0167,144.2783
17501,生田原,43.9167,143.5317
17512,仁頃山,43.86,143.7467
17521,北見,43.81,143.875
17546,小清水,43.8417,144.485
17561,斜里,43.8833,144.7
17596,留辺蘂,43.7417,143.45
17631,美幌,43.77,144.1717
17717,津別,43.7017,144.0333
17351,宇登呂,44.0517,144.9817
17091,西興部,44.3317,142.9367
17482,白滝,43.865,143.1533
17607,境野,43.7067,143.6433
17541,東藻琴,43.84,144.285
17386,丸瀬布,43.9533,143.3283
17531,女満別,43.88,144.1633
17116,紋別小向,44.3033,143.4033
17776,津別二又,43.5833,143.865
17686,置戸常元,43.62,143.44
17642,山園,43.7433,144.3367
18038,羅臼,44.0233,145.1867
18136,標津,43.6617,145.1317
18171,中標津,43.5433,144.9783
18256,別海,43.3817,145.1183
18273,根室,43.33,145.585
18281,納沙布,43.3933,145.7583
18311,厚床,43.2317,145.2583
18091,糸櫛別,43.7217,144.9883
18174,根室中標津,43.5767,144.96
18161,上標津,43.52,144.7467
19021,川湯,43.6167,144.4567
19076,阿寒湖畔,43.4367,144.085
19151,標茶,43.2917,144.5867
19261,中徹別,43.1983,144.1417
19346,阿寒,43.1133,144.1233
19416,白糠,42.97,144.0617
19432,釧路,42.985,144.3767
19406,二俣,42.9717,143.8917
19191,鶴居,43.2317,144.325
19051,弟子屈,43.51,144.4667
19376,太田,43.09,144.7783
19311,榊町,43.12,145.11
19451,知方学,42.9383,144.735
19281,塘路,43.1483,144.4967
19301,茶内原野,43.1733,144.9667
19347,鶴丘,43.04,144.1917
20146,陸別,43.4683,143.7383
20186,ぬかびら源泉郷,43.3667,143.1917
20266,上士幌,43.235,143.3033
20276,足寄,43.2433,143.5533
20341,本別,43.1317,143.6
20356,新得,43.0767,142.84
20361,鹿追,43.1033,142.995
20421,芽室,42.9,143.0433
20432,帯広,42.9217,143.2117
20441,池田,42.92,143.4583
20506,浦幌,42.8083,143.6567
20696,大樹,42.5,143.275
20751,広尾,42.2933,143.315
20371,駒場,43.05,143.1833
20601,上札内,42.6417,143.0967
20606,更別,42.6483,143.19
20631,大津,42.685,143.6467
20556,糠内,42.7867,143.3283
20071,小利別,43.5883,143.68
20331,押帯,43.115,143.4433
20202,柏倉,43.3617,143.4583
20222,上螺湾,43.3183,143.8017
20451,留真,42.9167,143.6617
20551,帯広泉,42.7333,143.2167
20047,三股,43.51,143.1483
21031,安平,42.8133,141.8283
21111,厚真,42.73,141.8883
21126,穂別,42.7617,142.1433
21171,森野,42.63,141.2467
21187,苫小牧,42.6233,141.5467
21226,大岸,42.59,140.6433
21261,白老,42.5433,141.3517
21276,鵡川,42.59,141.9333
21297,伊達,42.4733,140.8767
21312,登別,42.4583,141.1183
21323,室蘭,42.3117,140.975
21161,大滝,42.67,141.0783
21237,洞爺湖温泉,42.565,140.8067
21251,カルルス,42.5167,141.1067
22141,日高門別,42.5217,142.0367
22156,新和,42.5433,142.3333
22206,笹山,42.4333,142.4817
22241,静内,42.3433,142.3617
22327,浦河,42.1617,142.7767
22072,仁世宇,42.7717,142.3583
22291,三石,42.245,142.6617
22036,日高,42.8767,142.4417
22366,幌満,42.0767,143.035
22356,目黒,42.1267,143.3133
22306,中杵臼,42.2233,142.9483
22391,えりも岬,41.925,143.2433
22106,旭,42.6283,142.3933
23031,長万部,42.5233,140.3817
23086,八雲,42.2517,140.2717
23166,森,42.0667,140.5883
23191,大沼,41.9767,140.715
23206,川汲,41.905,140.97
23226,北斗,41.8867,140.6533
23232,函館,41.8167,140.7533
23376,松前,41.4233,140.0867
23326,木古内,41.6867,140.445
23356,千軒,41.5583,140.2717
23281,高松,41.77,140.8217
23291,戸井泊,41.7167,141.0033
23321,知内,41.5983,140.375
24141,熊石,42.1283,139.985
24041,せたな,42.45,139.8517
24051,今金,42.4283,140.0083
24166,潮見,42.0383,140.0883
24217,江差,41.8667,140.1233
24101,奥尻,42.2483,139.5567
24201,鶉,41.93,140.3117
24236,石崎,41.7,140.0283
24156,米岡,42.0717,139.4317
31111,むつ,41.2833,141.21
31201,蟹田,41.045,140.6333
31312,青森,40.8217,140.7683
31332,野辺地,40.885,141.16
31366,鰺ケ沢,40.7767,140.205
31296,五所川原,40.8083,140.4583
31436,深浦,40.645,139.9317
31461,弘前,40.6117,140.455
31466,黒石,40.6667,140.585
31506,三沢,40.675,141.375
31586,十和田,40.595,141.2467
31602,八戸,40.5267,141.5217
31551,大鰐,40.53,140.555
31646,碇ケ関,40.4817,140.62
31662,休屋,40.4267,140.8983
31721,三戸,40.3833,141.2567
31136,今別,41.18,140.4817
31336,六ケ所,40.885,141.2717
31001,大間,41.5267,140.9117
31321,大和山,40.8483,140.985
31482,酸ケ湯,40.6483,140.8483
31451,岳,40.6283,140.2633
31186,市浦,41.0567,140.3467
31121,小田野沢,41.235,141.3967
31156,脇野沢,41.145,140.8217
31411,七戸,40.7083,141.1283
31671,戸来,40.4683,141.1767
31562,温川,40.515,140.7833
31386,青森大谷,40.7333,140.6883
31036,湯野川,41.3133,140.9567
32091,陣場,40.4033,140.6083
32111,能代,40.1983,140.0317
32126,鷹巣,40.2267,140.3717
32146,鹿角,40.215,140.7867
32206,湯瀬,40.12,140.84
32296,五城目,39.9383,140.115
32402,秋田,39.7167,140.0983
32407,岩見三内,39.7067,140.2867
32466,角館,39.6033,140.5567
32476,田沢湖,39.6983,140.7317
32551,大曲,39.49,140.495
32571,本荘,39.36,140.055
32596,横手,39.32,140.555
32616,象潟,39.2217,139.9017
32626,矢島,39.235,140.1367
32691,湯沢,39.1867,140.4633
32771,湯の岱,38.96,140.5283
32136,大館,40.2517,140.505
32287,大潟,40,139.95
32286,男鹿,39.9117,139.9
32056,八森,40.3883,139.9817
32496,大正寺,39.5267,140.2333
32701,東成瀬,39.1783,140.6483
32312,比立内,39.9033,140.45
32581,東由利,39.305,140.2883
32311,阿仁合,39.9933,140.4033
32426,鎧畑,39.775,140.665
32071,藤里,40.32,140.2933
32376,桧木内,39.8117,140.585
32266,八幡平,40.0133,140.8017
32681,笹子,39.1033,140.2933
32096,藤原,40.355,140.7817
32276,男鹿真山,39.9383,139.7817
32408,仁別,39.8,140.2167
32181,脇神,40.1917,140.3717
32451,雄和,39.615,140.2183
33006,種市,40.4033,141.7
33026,軽米,40.3183,141.47
33071,二戸,40.2967,141.2983
33146,久慈,40.1883,141.775
33186,葛巻,40.0383,141.4367
33226,岩手松尾,39.9517,141.065
33326,岩泉,39.8467,141.7967
33421,雫石,39.6967,140.975
33431,盛岡,39.6983,141.165
33472,宮古,39.6467,141.965
33566,豊沢,39.48,140.9683
33576,花巻,39.4283,141.135
33581,大迫,39.47,141.2783
33631,湯田,39.31,140.7767
33716,北上,39.2883,141.11
33671,遠野,39.3367,141.5383
33751,釜石,39.27,141.8783
33776,若柳,39.1317,141.0633
33781,江刺,39.1833,141.1617
33877,大船渡,39.0633,141.7133
33911,一関,38.9333,141.125
33921,千厩,38.9217,141.33
33831,祭畤,39.01,140.865
33296,好摩,39.8683,141.1667
33616,山田,39.45,141.9567
33086,大野,40.28,141.6667
33841,衣川,39.05,141.045
33371,薮川,39.7833,141.3283
33726,米里,39.2333,141.31
33561,沢内,39.48,140.7983
33166,荒屋,40.1033,141.05
33206,普代,40.0033,141.8833
33501,紫波,39.5467,141.1267
33351,葛根田,39.775,140.945
33801,住田,39.1417,141.5733
33336,小本,39.84,141.955
33176,奥中山,40.06,141.225
33136,山形,40.1483,141.5717
33526,川井,39.5983,141.6817
33201,下戸鎖,40.0833,141.7117
33441,区界,39.65,141.3533
33611,大槌,39.4383,141.8067
33856,大東,39.0383,141.2967
33711,金ヶ崎,39.225,141.015
33361,滝沢,39.78,141.0967
33596,附馬牛,39.4567,141.5067
33461,刈屋,39.6417,141.7733
33686,小鎚,39.36,141.8783
33871,陸前高田,39.025,141.63
34026,気仙沼,38.9083,141.555
34096,川渡,38.7433,140.76
34111,築館,38.735,141.005
34186,志津川,38.6817,141.4483
34216,古川,38.5983,140.9117
34266,大衡,38.4733,140.8883
34276,鹿島台,38.46,141.0917
34292,石巻,38.4267,141.2983
34311,新川,38.3033,140.6367
34392,仙台,38.2617,140.8967
34461,白石,38.015,140.6117
34471,亘理,38.025,140.8583
34241,雄勝,38.5217,141.47
34171,米山,38.6267,141.1883
34331,塩釜,38.3383,141.0133
34012,駒ノ湯,38.9133,140.8283
34506,丸森,37.9317,140.7783
34361,江ノ島,38.3983,141.5967
34526,筆甫,37.8267,140.7283
34262,泉ケ岳,38.4067,140.7217
34436,名取,38.1383,140.9167
34056,鴬沢,38.805,140.9483
34206,加美,38.5717,140.7267
34462,蔵王,38.1267,140.68
34296,女川,38.4533,141.44
34231,桃生,38.56,141.245
34286,東松島,38.4267,141.2133
34431,岩沼,38.1067,140.8767
35052,酒田,38.9083,139.8433
35071,差首鍋,38.9183,140.2
35116,金山,38.8783,140.3317
35141,鶴岡,38.735,139.8283
35146,狩川,38.8,139.9733
35162,新庄,38.7567,140.3117
35171,瀬見,38.755,140.4133
35201,櫛引,38.6717,139.8483
35376,左沢,38.37,140.1917
35426,山形,38.255,140.345
35456,長井,38.105,140.015
35486,小国,38.0783,139.735
35541,高峰,37.9983,139.9567
35552,米沢,37.9117,140.1433
35176,向町,38.7583,140.5167
35061,上草津,38.995,140.0283
35231,尾花沢,38.6083,140.4117
35246,鼠ケ関,38.5667,139.5517
35216,肘折,38.6067,140.1633
35511,高畠,38.0033,140.2067
35002,飛島,39.1833,139.5433
35361,大井沢,38.39,139.9933
35256,荒沢,38.5067,139.7817
35537,中津川,37.91,139.8433
35086,浜中,38.8117,139.7867
35334,東根,38.4117,140.37
35332,村山,38.46,140.3483
35466,上山中山,38.1167,140.2133
36411,浪江,37.4917,140.965
36591,小野新町,37.2867,140.625
36611,広野,37.2333,141
36501,川内,37.3367,140.8083
36151,相馬,37.7833,140.925
36476,郡山,37.3683,140.33
36066,梁川,37.8517,140.5883
36126,福島,37.7583,140.47
36176,喜多方,37.6583,139.8633
36231,原町,37.6383,140.985
36276,猪苗代,37.555,140.1217
36291,二本松,37.5833,140.43
36361,若松,37.4883,139.91
36391,船引,37.435,140.5767
36426,只見,37.3433,139.3133
36511,富岡,37.3467,141.0167
36536,南郷,37.265,139.5367
36641,田島,37.2067,139.795
36667,白河,37.1317,140.215
36676,石川,37.1467,140.46
36781,平,37.065,140.8767
36821,東白川,36.9383,140.4083
36846,小名浜,36.9467,140.9033
36251,西会津,37.5883,139.6567
36342,金山,37.4733,139.5283
36196,鷲倉,37.6683,140.26
36221,飯舘,37.695,140.7467
36307,津島,37.56,140.7533
36571,長沼,37.2883,140.2183
36726,舘岩,37.0917,139.5317
36596,川前,37.2067,140.75
36106,桧原,37.7217,140.0583
36056,茂庭,37.8917,140.4367
36562,湯本,37.2767,140.0633
36716,桧枝岐,37.0233,139.3867
36461,湖南,37.3883,140.09
36581,玉川,37.2267,140.4267
36836,山田,36.9333,140.7333
36081,新地,37.875,140.9183
36766,古殿,37.09,140.56
40041,花園,36.8683,140.6367
40046,北茨城,36.8333,140.7717
40061,大子,36.7783,140.345
40191,笠間,36.3833,140.2367
40201,水戸,36.38,140.4667
40221,古河,36.2017,139.7167
40281,下妻,36.1683,139.945
40326,坂東,36.035,139.8933
40341,土浦,36.1033,140.22
40406,鹿嶋,35.9633,140.6217
40391,江戸崎,35.96,140.32
40136,日立,36.5983,140.65
40241,柿岡,36.2333,140.1883
40251,美野里,36.2367,140.325
40426,龍ケ崎,35.89,140.2117
40126,中野,36.515,140.4733
40066,徳田,36.7783,140.4817
40311,鉾田,36.1683,140.5267
40091,常陸大宮,36.6067,140.325
40181,門井,36.3333,140.0333
40076,大能,36.7433,140.5917
40336,つくば(館野),36.0567,140.125
40231,下館,36.2817,139.9883
40081,高萩,36.7067,140.7167
41011,那須,37.1233,140.035
41091,黒磯,36.9817,140.0183
41141,大田原,36.84,140.035
41166,奥日光(日光),36.7383,139.5
41241,高根沢,36.6067,139.9983
41271,鹿沼,36.5917,139.735
41277,宇都宮,36.5483,139.8683
41311,葛生,36.4333,139.59
41331,真岡,36.4783,139.9867
41356,足利,36.3017,139.4733
41371,栃木,36.3733,139.7033
41376,小山,36.3383,139.83
41076,五十里,36.9217,139.695
41211,足尾,36.6467,139.4483
41361,佐野,36.3633,139.57
41116,土呂部,36.8933,139.5683
41171,今市,36.7267,139.6767
41181,塩谷,36.7567,139.8833
41247,那須烏山,36.6417,140.1167
42121,草津,36.6167,138.5917
42146,沼田,36.6533,139.06
42221,田代,36.4633,138.4633
42241,榛名山,36.4717,138.8733
42251,前橋,36.405,139.06
42266,桐生,36.3833,139.345
42286,上里見,36.3767,138.895
42326,西野牧,36.245,138.7067
42341,藤岡,36.25,139.0733
42366,館林,36.2333,139.5317
42091,みなかみ,36.8,138.9917
42186,中之条,36.5867,138.85
42302,伊勢崎,36.3317,139.165
42106,片品,36.7717,139.2383
42046,藤原,36.8633,139.0583
42396,神流,36.1083,138.8967
42261,黒保根,36.5017,139.2833
43056,熊谷,36.15,139.38
43126,久喜,36.0867,139.635
43156,秩父,35.99,139.0733
43231,飯能,35.8383,139.3217
43241,さいたま,35.875,139.5867
43256,越谷,35.8833,139.7567
43151,三峰,35.9267,138.9233
43051,寄居,36.105,139.1833
43121,鴻巣,36.065,139.5217
43266,所沢,35.7733,139.4133
43157,浦山,35.92,139.07
43091,上吉田,36.0533,138.98
43171,鳩山,35.985,139.335
43162,ときがわ,35.99,139.2067
44046,小河内,35.7917,139.05
44112,八王子,35.6667,139.3167
44126,世田谷,35.6267,139.62
44132,東京,35.69,139.76
44136,江戸川臨海,35.6383,139.8633
44166,羽田,35.5533,139.78
44172,大島,34.7483,139.3617
44226,三宅島,34.1233,139.5217
44263,八丈島,33.1217,139.7783
44056,青梅,35.7883,139.3117
44076,練馬,35.735,139.6683
44116,府中,35.6833,139.4817
44051,小沢,35.735,139.1233
44301,父島,27.0917,142.19
44173,大島北ノ山,34.7817,139.36
44262,八重見ヶ原,33.115,139.785
44228,三宅坪田,34.0733,139.56
44207,新島,34.3683,139.2683
44216,神津島,34.1883,139.1333
44356,南鳥島,24.2883,153.9833
44316,母島,26.635,142.1617
45081,香取,35.8583,140.5017
45061,我孫子,35.8633,140.11
45086,東庄,35.8217,140.685
45121,成田,35.7633,140.385
45147,銚子,35.7383,140.8567
45212,千葉,35.6017,140.1033
45261,茂原,35.4167,140.31
45282,木更津,35.3617,139.94
45346,鋸南,35.1217,139.8367
45361,鴨川,35.1117,140.1
45371,勝浦,35.15,140.3117
45401,館山,34.9867,139.865
45116,佐倉,35.7283,140.2117
45181,横芝光,35.6567,140.48
45331,大多喜,35.2517,140.215
45106,船橋,35.7117,140.0433
45291,牛久,35.3967,140.1483
45326,坂畑,35.235,140.0983
46001,相模湖,35.6133,139.1933
46091,海老名,35.4333,139.3867
46106,横浜,35.4383,139.6517
46161,箱根,35.2217,139.0417
46211,三浦,35.1783,139.63
46046,相模原中央,35.5717,139.37
46061,日吉,35.5517,139.65
46136,平塚,35.345,139.305
46166,小田原,35.2767,139.155
46076,丹沢湖,35.41,139.0433
46141,辻堂,35.32,139.45
48031,野沢温泉,36.9117,138.4417
48061,信濃町,36.8083,138.1983
48066,飯山,36.875,138.375
48141,白馬,36.6983,137.8617
48156,長野,36.6617,138.1917
48172,笠岳,36.6667,138.4567
48191,大町,36.5233,137.8333
48196,信州新町,36.5483,137.9967
48256,上田,36.4,138.265
48296,穂高,36.3433,137.8817
48331,軽井沢,36.3417,138.5467
48361,松本,36.245,137.97
48371,鹿教湯,36.3017,138.1367
48386,佐久,36.2467,138.4767
48491,諏訪,36.045,138.1083
48541,木曽平沢,35.9833,137.835
48561,原村,35.97,138.22
48571,野辺山,35.9483,138.4717
48601,御嶽山,35.8717,137.5033
48606,木曽福島,35.84,137.6883
48681,宮田高原,35.7733,137.885
48716,須原,35.6983,137.6917
48731,飯島,35.6533,137.8983
48767,飯田,35.5233,137.8217
48216,菅平,36.5317,138.325
48321,東御,36.3833,138.3833
48346,上高地,36.2467,137.6333
48717,南木曽,35.61,137.62
48146,鬼無里,36.6883,137.965
48381,立科,36.2717,138.3133
48466,奈川,36.0883,137.6833
48531,開田高原,35.9383,137.6017
48826,浪合,35.3733,137.6917
48546,辰野,35.9817,137.9833
48841,南信濃,35.3217,137.9317
48836,阿南,35.3133,137.8117
48247,聖高原,36.4867,138.0683
48737,大鹿,35.5567,138.04
48691,杉島,35.7267,138.0933
48097,小谷,36.8217,137.93
48621,伊那,35.8267,137.955
48363,松本今井,36.1667,137.9217
48516,北相木,36.0717,138.6117
48436,白樺湖,36.105,138.2283
48556,高遠,35.9533,138.1083
49142,甲府,35.6667,138.5533
49151,勝沼,35.6633,138.725
49161,大月,35.6083,138.9383
49186,八町山,35.5433,138.4117
49196,古関,35.5283,138.615
49251,河口湖,35.5,138.76
49256,山中,35.4367,138.8367
49316,南部,35.2883,138.445
49036,大泉,35.8617,138.3867
49086,韮崎,35.6933,138.4483
49171,上野原,35.6217,139.1133
49236,切石,35.4667,138.4417
50066,富士山,35.36,138.7267
49052,乙女湖,35.8067,138.655
50056,白糸,35.3117,138.5783
50136,御殿場,35.305,138.9267
50196,富士,35.185,138.6633
50206,三島,35.1133,138.925
50231,越木平,35.01,137.98
50241,川根本町,35.1017,138.1283
50281,網代,35.045,139.0917
50317,高根山,34.975,138.1967
50331,静岡,34.975,138.4033
50386,天竜,34.89,137.8133
50426,湯ケ島,34.9,138.925
50427,天城山,34.8717,139.0233
50456,浜松,34.7083,137.7183
50491,松崎,34.755,138.7833
50506,稲取,34.7817,139.0483
50551,御前崎,34.6033,138.2117
50561,石廊崎,34.6033,138.8417
50226,佐久間,35.0567,137.7617
50416,土肥,34.8767,138.76
50371,三ヶ日,34.8017,137.5567
50466,掛川,34.78,137.9667
50296,熊,34.9583,137.7333
50111,梅ケ島,35.2367,138.3417
50261,清水,35.0533,138.5217
50536,磐田,34.6917,137.88
50476,菊川牧之原,34.785,138.1383
50106,井川,35.2167,138.2217
50391,三倉,34.895,137.94
50247,鍵穴,35.0483,138.2467
50066,富士山,35.36,138.7267
50477,静岡空港,34.795,138.1883
51011,一宮,35.2983,136.8533
51077,茶臼山,35.22,137.6583
51106,名古屋,35.1667,136.965
51116,豊田,35.1317,137.1767
51161,東海,35.0233,136.9017
51226,岡崎,34.9183,137.1933
51241,作手,34.9767,137.425
51271,一色,34.8117,137.0283
51331,豊橋,34.75,137.3417
51346,伊良湖,34.6283,137.0933
51356,田原,34.6267,137.2217
51071,稲武,35.2117,137.5067
51096,蟹江,35.1367,136.7917
51311,南知多,34.74,136.9383
51056,小原,35.2283,137.285
51281,蒲郡,34.845,137.2167
51031,愛西,35.2167,136.6983
51247,新城,34.9067,137.5167
51261,セントレア,34.8583,136.805
51192,阿蔵,35.0783,137.4133
52051,神岡,36.3217,137.3083
52146,高山,36.155,137.2533
52192,船山,36.035,137.26
52286,萩原,35.8883,137.2067
52331,八幡,35.7567,136.9783
52381,樽見,35.6383,136.6033
52406,金山,35.6633,137.16
52476,伽藍,35.515,137.23
52536,美濃加茂,35.445,137.005
52556,恵那,35.4467,137.4033
52557,中津川,35.4767,137.4867
52571,関ケ原,35.3633,136.4667
52581,大垣,35.3467,136.62
52586,岐阜,35.4,136.7617
52461,美濃,35.5567,136.91
52606,多治見,35.3467,137.1083
52641,上石津,35.295,136.4717
52111,栃尾,36.2483,137.5033
52346,宮地,35.7633,137.2883
52221,長滝,35.925,136.8317
52511,揖斐川,35.485,136.5667
52181,六厩,36.06,137.0333
52081,白川,36.2733,136.8967
52041,河合,36.305,137.1
52196,宮之前,36.015,137.3883
52482,黒川,35.5983,137.3183
52421,付知,35.6567,137.4267
52131,御母衣,36.1467,136.9083
52173,ひるがの,36.01,136.895
52137,清見,36.18,137.045
52152,丹生川,36.1883,137.3717
52321,関市板取,35.7233,136.7833
53016,北勢,35.1433,136.5383
53041,桑名,35.05,136.6933
53061,四日市,34.94,136.58
53091,亀山,34.87,136.4533
53112,上野,34.7617,136.1417
53121,笠取山,34.725,136.3083
53132,津,34.7333,136.5183
53141,名張,34.635,136.1117
53196,小俣,34.5283,136.665
53231,粥見,34.4483,136.39
53287,藤坂峠,34.3233,136.4883
53378,尾鷲,34.07,136.1933
53257,鳥羽,34.4817,136.825
53321,宮川,34.2783,136.2083
53296,南伊勢,34.345,136.6817
53326,紀伊長島,34.2083,136.3267
53151,白山,34.625,136.3217
53307,阿児,34.3283,136.8317
53416,御浜,33.8517,135.98
53401,熊野新鹿,33.9317,136.1383
54086,村上,38.2267,139.4783
54157,相川,38.0283,138.24
54166,両津,38.0733,138.44
54232,新潟,37.9117,139.0467
54296,新津,37.7917,139.0867
54341,巻,37.7683,138.9133
54387,寺泊,37.64,138.7667
54396,三条,37.64,138.955
54406,村松,37.6967,139.1883
54421,津川,37.6717,139.4467
54501,長岡,37.45,138.8233
54506,栃尾,37.475,138.9917
54541,柏崎,37.3517,138.5533
54616,小出,37.2383,138.9617
54651,高田,37.1067,138.2467
54661,安塚,37.1067,138.4567
54676,十日町,37.1433,138.7267
54711,糸魚川,37.0383,137.8617
54721,能生,37.0833,138.0233
54836,津南,36.9967,138.6833
54841,湯沢,36.9417,138.81
54011,粟島,38.4617,139.2517
54271,羽茂,37.8417,138.3133
54566,入広瀬,37.3567,139.0717
54816,関山,36.9333,138.2217
54191,下関,38.0917,139.5633
54311,赤谷,37.835,139.415
54606,小国,37.2917,138.7017
54671,松代,37.1317,138.6067
54056,高根,38.33,139.605
54876,平岩,36.8867,137.8633
54586,大潟,37.225,138.325
54041,弾崎,38.33,138.5117
54181,中条,38.06,139.4083
54097,三面,38.2467,139.605
54621,大湯,37.205,139.0617
54761,塩沢,37.0383,138.8467
54462,宮寄上,37.58,139.14
54892,樽本,36.89,138.275
54666,川谷,37.2,138.5167
54737,筒方,37.03,138.3433
54472,室谷,37.55,139.37
54236,松浜,37.955,139.1117
54167,秋津,38.06,138.4133
55021,泊,36.9517,137.5517
55056,魚津,36.8217,137.4283
55091,伏木,36.7917,137.055
55102,富山,36.7083,137.2017
55141,砺波,36.61,136.955
55166,上市,36.67,137.4233
55191,南砺高宮,36.545,136.8717
55206,八尾,36.5783,137.1317
55041,氷見,36.8633,136.96
55063,宇奈月,36.8467,137.5567
55156,大山,36.6083,137.2833
55267,猪谷,36.4733,137.2367
55151,秋ヶ島,36.6483,137.1867
55252,五箇山,36.43,136.9417
55217,立山芦峅,36.5767,137.385
56036,珠洲,37.4467,137.2867
56052,輪島,37.3917,136.895
56081,門前,37.2617,136.7283
56116,志賀,37.1433,136.725
56146,七尾,37.03,136.9917
56176,羽咋,36.8933,136.7767
56186,かほく,36.7117,136.6917
56227,金沢,36.5883,136.6333
56232,医王山,36.52,136.745
56301,栢野,36.225,136.3583
56286,白山吉野,36.3617,136.6133
56346,白山白峰,36.18,136.625
56276,小松,36.3817,136.435
56093,三井,37.2933,136.9617
56192,宝達志水,36.7883,136.7683
57066,福井,36.055,136.2217
57121,大野,35.9717,136.4967
57206,今庄,35.7667,136.2
57248,敦賀,35.6533,136.0617
57317,小浜,35.4833,135.7817
57071,美山,35.9983,136.3583
57286,美浜,35.6,135.9167
57001,三国,36.2433,136.1733
57082,勝山,36.0383,136.5217
57051,越廼,36.0117,135.99
57176,九頭竜,35.905,136.67
57311,大飯,35.48,135.6167
57026,春江,36.1417,136.2233
57106,武生,35.9067,136.175
60051,今津,35.4117,136.0283
60131,彦根,35.275,136.2433
60161,近江八幡,35.1267,136.0967
60216,大津,34.9917,135.9117
60236,土山,34.9383,136.2783
60196,東近江,35.0617,136.19
60226,信楽,34.9133,136.08
60061,長浜,35.4233,136.2417
60116,南小松,35.235,135.9567
60026,柳ケ瀬,35.5817,136.1883
60102,米原,35.3833,136.3433
60081,朽木平良,35.3083,135.83
61031,峰山,35.6183,135.0717
61076,宮津,35.55,135.235
61111,舞鶴,35.45,135.3167
61187,福知山,35.3117,135.1133
61242,園部,35.1083,135.455
61286,京都,35.015,135.7317
61326,京田辺,34.83,135.76
61251,京北,35.18,135.6617
61001,間人,35.7367,135.0867
61201,本庄,35.26,135.395
61306,長岡京,34.93,135.7283
61151,故屋岡,35.385,135.4567
61206,美山,35.275,135.55
61241,須知,35.1767,135.42
61132,三岳,35.3667,135.05
61191,綾部,35.2933,135.2583
61192,三和,35.2167,135.2317
62016,能勢,34.9483,135.455
62051,豊中,34.7833,135.4383
62078,大阪,34.6817,135.5183
62081,生駒山,34.675,135.6767
62111,河内長野,34.4233,135.5433
62131,熊取,34.385,135.35
62091,堺,34.555,135.485
62046,枚方,34.8083,135.6717
62096,八尾,34.5967,135.6
62101,関空島,34.4333,135.2317
62037,茨木,34.86,135.56
63016,香住,35.625,134.6267
63032,温泉,35.5283,134.48
63051,豊岡,35.535,134.8217
63116,八鹿,35.3983,134.74
63121,和田山,35.3233,134.8483
63201,生野,35.1667,134.7917
63216,柏原,35.1483,135.0467
63251,一宮,35.0967,134.585
63241,佐用,35.0167,134.3683
63346,後川,35.025,135.2933
63366,上郡,34.8583,134.3733
63383,姫路,34.8383,134.67
63491,家島,34.6717,134.5267
63496,明石,34.6867,134.8767
63518,神戸,34.6967,135.2117
63576,洲本,34.3383,134.905
63331,西脇,34.9983,134.9967
63111,大屋,35.3317,134.665
63321,福崎,34.95,134.7483
63411,三田,34.895,135.2117
63551,郡家,34.4667,134.8483
63071,兎和野高原,35.4317,134.5833
63461,三木,34.7767,135.0133
63588,南淡,34.2183,134.72
63517,神戸空港,34.6317,135.2233
63477,西宮,34.75,135.335
64036,奈良,34.6933,135.8267
64041,針,34.605,135.9533
64056,田原本,34.555,135.785
64076,曽爾,34.5217,136.1583
64101,大宇陀,34.4883,135.9317
64127,五條,34.38,135.73
64261,玉置山,33.9267,135.83
64206,上北山,34.1367,136.005
64227,風屋,34.045,135.7867
64091,葛城,34.4883,135.7033
64136,吉野,34.3783,135.9
64161,天川,34.27,135.8833
65021,葛城山,34.3467,135.4367
65042,和歌山,34.2283,135.1633
65061,高野山,34.2217,135.59
65127,護摩壇山,34.04,135.5667
65276,新宮,33.6867,135.97
65321,日置川,33.605,135.48
65356,潮岬,33.45,135.7567
65256,栗栖川,33.7917,135.5133
65106,湯浅,34.035,135.1817
65121,清水,34.0867,135.425
65226,本宮,33.8367,135.7733
65162,龍神,33.945,135.5567
65311,色川,33.675,135.8483
65026,かつらぎ,34.31,135.5283
65306,西川,33.6383,135.71
65036,友ケ島,34.28,135
65201,川辺,33.8933,135.2167
65288,南紀白浜,33.6617,135.3633
66136,今岡,35.0983,134.325
66171,久世,35.0683,133.7533
66186,津山,35.0633,134.0083
66221,新見,34.9433,133.5183
66251,赤磐,34.9183,134.0817
66276,陣山,34.8283,133.5233
66296,福渡,34.8667,133.9033
66306,和気,34.815,134.1833
66381,佐屋,34.685,133.445
66391,矢掛,34.6167,133.6183
66408,岡山,34.66,133.9167
66421,虫明,34.6817,134.2067
66446,倉敷,34.59,133.7683
66501,玉野,34.4867,133.95
66481,笠岡,34.5017,133.495
66226,下呰部,34.965,133.6283
66336,高梁,34.7917,133.61
66127,奈義,35.1117,134.17
66046,上長田,35.2967,133.725
66091,千屋,35.1033,133.435
66056,恩原,35.3,133.9867
66346,日応寺,34.7567,133.855
66112,富,35.1783,133.805
66287,吉備中央,34.8167,133.705
66237,旭西,34.9617,133.8117
67026,道後山,35.0567,133.1883
67106,三次,34.8117,132.85
67116,庄原,34.86,133.0233
67151,大朝,34.7683,132.4633
67212,加計,34.61,132.32
67251,上下,34.6933,133.1167
67271,内黒山,34.5967,132.1767
67316,世羅,34.5833,133.05
67376,東広島,34.4167,132.7
67401,福山,34.4467,133.2467
67437,広島,34.3983,132.4617
67461,竹原,34.33,132.9817
67471,生口島,34.2783,133.1233
67496,大竹,34.2217,132.22
67511,呉,34.24,132.55
67566,倉橋,34.0917,132.4883
67016,高野,35.0333,132.9017
67126,東城,34.895,133.2767
67231,甲田,34.695,132.76
67292,三入,34.545,132.53
67326,府中,34.5617,133.2317
67371,志和,34.4983,132.66
67211,王泊,34.6983,132.3117
67136,八幡,34.7083,132.1733
67191,油木,34.7633,133.2783
67421,廿日市津田,34.365,132.19
67386,本郷,34.435,132.9183
67351,佐伯湯来,34.4983,132.29
67217,都志見,34.6467,132.4433
67052,君田,34.9283,132.83
67161,美土里,34.7217,132.655
67306,安宿,34.5667,132.8383
67576,呉市蒲刈,34.165,132.7483
68022,西郷,36.2033,133.3333
68091,鹿島,35.52,133.0217
68121,斐川,35.4133,132.89
68132,松江,35.4567,133.065
68166,大東,35.3183,132.965
68246,大田,35.19,132.4967
68261,掛合,35.1983,132.8167
68276,横田,35.1733,133.1033
68351,川本,34.9767,132.4917
68376,浜田,34.8967,132.07
68421,三隅,34.7883,131.9583
68462,益田,34.6767,131.8433
68516,津和野,34.4617,131.77
68206,佐田,35.2217,132.7233
68346,桜江,34.9533,132.3333
68401,瑞穂,34.8533,132.53
68181,伯太,35.35,133.2733
68436,波佐,34.78,132.1967
68501,匹見,34.5717,132.0167
68056,海士,36.0967,133.0967
68156,出雲,35.3317,132.73
68306,赤名,35.0017,132.7117
68431,弥栄,34.7767,132.1083
68286,福光,35.07,132.3317
68046,西郷岬,36.1783,133.3233
68456,高津,34.675,131.79
68541,吉賀,34.3917,131.8933
69006,境,35.5433,133.235
69041,青谷,35.52,133.9967
69122,鳥取,35.4867,134.2383
69061,岩井,35.5583,134.36
69076,米子,35.4333,133.3383
69101,倉吉,35.4733,133.8383
69152,大山,35.3933,133.5367
69246,智頭,35.2633,134.24
69161,関金,35.3783,133.7567
69196,若桜,35.3333,134.405
69021,塩津,35.5233,133.5667
69271,茶屋,35.1867,133.23
69181,佐治,35.3283,134.1133
69222,江尾,35.2883,133.4833
69111,鹿野,35.4133,134.0167
69052,湖山,35.53,134.165
71066,池田,34.0233,133.7967
71106,徳島,34.0667,134.5733
71266,日和佐,33.7317,134.5383
71087,穴吹,34.04,134.1567
71211,福原旭,33.8783,134.3883
71231,蒲生田,33.8367,134.7417
71191,京上,33.8667,133.9033
71136,半田,33.99,134.0367
71251,木頭,33.7717,134.205
71291,海陽,33.6117,134.355
72061,内海,34.4717,134.2733
72086,高松,34.3167,134.0533
72111,多度津,34.275,133.7517
72121,滝宮,34.2367,133.9233
72146,引田,34.2133,134.4067
72176,竜王山,34.1133,134.05
72161,財田,34.12,133.7717
72126,香南,34.2133,134.015
73001,大三島,34.25,133.0067
73071,玉川,34.0183,132.94
73136,新居浜,33.96,133.2817
73151,四国中央,33.9817,133.5817
73166,松山,33.8433,132.7767
73231,上林,33.7383,132.89
73247,成就社,33.795,133.1317
73256,長浜,33.6167,132.48
73271,中山,33.6383,132.7083
73276,久万,33.6633,132.895
73321,獅子越峠,33.5433,132.8317
73351,八幡浜,33.4483,132.4333
73442,宇和島,33.2267,132.5517
73516,御荘,32.9633,132.57
73126,西条,33.915,133.08
73306,大洲,33.5083,132.535
73406,宇和,33.3667,132.5033
73076,今治,34.0767,132.99
73152,富郷,33.915,133.51
73446,近永,33.2533,132.675
73341,瀬戸,33.4467,132.2567
73168,松山南吉田,33.8267,132.6983
74071,本山,33.7533,133.575
74126,繁藤,33.6783,133.685
74166,佐川,33.5117,133.2717
74181,高知,33.5667,133.5483
74238,鳥形山,33.48,133.0833
74237,船戸,33.4167,133.0883
74271,安芸,33.4883,133.9333
74311,須崎,33.385,133.2767
74336,佐喜浜,33.3933,134.205
74361,窪川,33.2067,133.1283
74372,室戸岬,33.2517,134.1767
74391,大正,33.1933,132.9717
74447,宿毛,32.92,132.695
74456,中村,32.99,132.92
74516,清水,32.7217,133.01
74296,梼原,33.39,132.9217
74276,田野,33.4267,134.0067
74101,池川,33.6083,133.1683
74136,大栃,33.6983,133.875
74436,佐賀,33.0783,133.1017
74381,江川崎,33.17,132.7917
74187,後免,33.59,133.6433
74151,魚梁瀬,33.615,134.1083
74056,本川,33.765,133.3383
74188,南国日章,33.545,133.6683
74506,三崎,32.795,132.8717
81011,須佐,34.615,131.6233
81071,萩,34.41,131.405
81151,徳佐,34.3983,131.725
81196,秋吉台,34.235,131.3067
81231,広瀬,34.2617,131.9517
81266,豊田,34.1867,131.0767
81286,山口,34.16,131.4533
81371,防府,34.04,131.5333
81386,下松,34.0217,131.8733
81428,下関,33.9483,130.925
81436,宇部,33.93,131.2783
81486,安下庄,33.9033,132.2917
81397,玖珂,34.095,132.075
81116,油谷,34.37,131.055
81321,岩国,34.155,132.1783
81481,柳井,33.9583,132.1133
81167,羅漢山,34.35,132.0633
81301,和田,34.1483,131.735
81141,篠生,34.3033,131.5767
81228,鹿野,34.225,131.815
81271,東厚保,34.1183,131.1817
82056,八幡,33.8517,130.7433
82101,行橋,33.7117,130.975
82136,飯塚,33.6517,130.6933
82171,前原,33.56,130.1917
82182,福岡,33.5817,130.375
82261,朝倉,33.405,130.695
82272,英彦山,33.4883,130.9233
82306,久留米,33.3017,130.4917
82316,耳納山,33.2917,130.625
82317,黒木,33.2233,130.6467
82361,大牟田,33.0067,130.4667
82046,宗像,33.8083,130.5383
82331,柳川,33.16,130.4033
82206,添田,33.56,130.8533
82191,太宰府,33.5133,130.5
82186,博多,33.5833,130.4517
82068,空港北町,33.845,131.035
82241,早良脇山,33.4883,130.3533
83051,中津,33.5867,131.245
83061,豊後高田,33.57,131.4333
83126,武蔵,33.4783,131.7367
83137,日田,33.3217,130.9283
83201,湯布院,33.2533,131.3467
83216,大分,33.235,131.6183
83226,佐賀関,33.2483,131.865
83341,犬飼,33.065,131.6317
83371,竹田,32.9733,131.3983
83401,佐伯,32.95,131.9017
83476,蒲江,32.795,131.9233
83106,院内,33.42,131.3167
83191,玖珠,33.2917,131.155
83286,臼杵,33.1233,131.805
83096,耶馬渓,33.445,131.115
83021,国見,33.675,131.59
83431,宇目,32.845,131.675
83121,杵築,33.4167,131.5967
83242,椿ヶ鼻,33.1917,130.915
84072,厳原,34.1967,129.2917
84171,平戸,33.36,129.55
84183,松浦,33.3417,129.7117
84266,佐世保,33.1583,129.7267
84356,大瀬戸,32.9483,129.6333
84361,長浦岳,32.9083,129.7383
84441,諫早,32.8433,130.025
84496,長崎,32.7333,129.8667
84519,雲仙岳,32.7367,130.2617
84536,福江,32.6933,128.8267
84561,口之津,32.6117,130.1933
84523,島原,32.7417,130.3733
84371,大村,32.9167,129.9133
84341,有川,32.9817,129.1183
84121,芦辺,33.8,129.7217
84596,野母崎,32.5783,129.74
84012,鰐浦,34.6983,129.445
84122,石田,33.7483,129.785
84537,上大津,32.665,128.8317
84236,小値賀,33.19,129.09
84286,頭ヶ島,33.0133,129.1917
84076,美津島,34.285,129.33
85142,佐賀,33.265,130.305
85166,白石,33.1833,130.1483
85161,嬉野,33.1167,129.995
85116,伊万里,33.2667,129.8783
85176,川副,33.1483,130.3017
85033,唐津,33.4583,129.955
85106,鳥栖,33.385,130.5167
85046,北山,33.4133,130.22
86006,鹿北,33.115,130.6917
86066,南小国,33.1033,131.0667
86086,岱明,32.915,130.5117
86101,菊池,32.9467,130.7817
86141,熊本,32.8133,130.7067
86156,阿蘇山,32.88,131.0733
86161,高森,32.8217,131.125
86236,甲佐,32.645,130.8083
86271,松島,32.515,130.4467
86316,本渡,32.4683,130.18
86336,八代,32.4733,130.6067
86467,人吉,32.2167,130.755
86491,牛深,32.1967,130.0267
86146,益城,32.8367,130.855
86451,水俣,32.205,130.4067
86478,多良木,32.295,130.95
86477,上,32.225,130.905
86396,田浦,32.3633,130.5083
86216,三角,32.6117,130.4783
86481,湯前横谷,32.2633,131.045
86111,阿蘇乙姫,32.94,131.04
86351,五木,32.395,130.8267
86407,山江,32.3017,130.7467
86181,宇土,32.7,130.6567
86461,一勝地,32.245,130.645
86197,山都,32.7117,130.9583
87041,高千穂,32.7117,131.29
87141,延岡,32.5817,131.6567
87181,日向,32.4083,131.6
87292,高鍋,32.1233,131.5267
87301,加久藤,32.0467,130.81
87331,西都,32.0617,131.4133
87346,えびの,31.945,130.84
87352,小林,32,130.955
87361,野尻,31.9567,131.1567
87371,国富,32.0067,131.2967
87376,宮崎,31.9383,131.4133
87411,青島,31.8033,131.4583
87426,都城,31.73,131.08
87492,油津,31.5783,131.4067
87501,串間,31.465,131.22
87066,古江,32.7117,131.82
87461,深瀬,31.6367,131.25
87127,諸塚,32.5167,131.335
87231,西米良,32.23,131.1517
87071,鞍岡,32.6433,131.1567
87206,神門,32.385,131.3317
87136,北方,32.5617,131.525
87412,赤江,31.8767,131.4483
87251,都農,32.2833,131.5417
87086,日之影,32.6817,131.4067
87356,高原,31.9283,131.0067
87391,山田,31.8133,131.0383
88061,阿久根,32.0267,130.2
88081,大口,32.0467,130.6267
88101,紫尾山,31.98,130.3667
88107,さつま柏原,31.9167,130.455
88131,中甑,31.835,129.865
88151,川内,31.835,130.315
88166,溝辺,31.8033,130.7183
88211,八重山,31.7467,130.4383
88261,東市来,31.6683,130.3267
88317,鹿児島,31.5533,130.5467
88371,加世田,31.415,130.325
88392,吉ケ別府,31.46,130.86
88432,喜入,31.3867,130.54
88466,枕崎,31.2717,130.2933
88486,指宿,31.2483,130.6367
88506,内之浦,31.2767,131.055
88612,種子島,30.72,130.9817
88621,中種子,30.605,130.9917
88666,上中,30.4067,130.9
88706,尾之間,30.2333,130.555
88836,名瀬,28.3783,129.495
88686,屋久島,30.385,130.6583
88971,沖永良部,27.4317,128.705
88066,出水,32.0933,130.3517
88286,牧之原,31.6617,130.8433
88406,志布志,31.4783,131.095
88442,鹿屋,31.39,130.8633
88901,古仁屋,28.1433,129.315
88536,田代,31.1983,130.8433
88956,伊仙,27.6767,128.9733
88331,輝北,31.5883,130.855
88341,大隅,31.58,131.005
88551,佐多,31.0933,130.69
88447,肝付前田,31.34,130.9383
88986,与論島,27.0433,128.4017
88851,喜界島,28.32,129.9267
88821,笠利,28.43,129.7117
88736,中之島,29.8383,129.8667
88931,天城,27.835,128.88
88176,霧島牧園,31.885,130.82
91021,奥,26.835,128.2717
91107,名護,26.5933,127.965
91121,読谷,26.405,127.7417
91161,胡屋,26.3267,127.805
91197,那覇,26.2067,127.685
91241,糸数,26.1533,127.765
94081,石垣島,24.3367,124.1633
94001,伊原間,24.5083,124.28
91011,伊是名,26.9483,127.94
93041,宮古島,24.7933,125.2767
91146,久米島,26.3367,126.8033
91181,渡嘉敷,26.21,127.3633
93051,城辺,24.7433,125.41
94036,川平,24.4667,124.14
94101,大原,24.265,123.8717
94062,西表島,24.4267,123.765
94017,与那国島,24.4667,123.01
94116,波照間,24.055,123.7683
92011,南大東(南大東島),25.8283,131.2267
91066,本部,26.685,127.8983
91081,東,26.6317,128.1533
91236,安次嶺,26.195,127.645
93042,鏡原,24.7817,125.295
94082,真栄里,24.3433,124.1867
93012,下地,24.8267,125.1433
93062,仲筋,24.6533,124.675
94011,所野,24.4667,122.9783
94121,志多阿原,24.0583,123.8033
91096,粟国,26.5917,127.24
91216,慶良間,26.1683,127.2933
92006,北大東,25.9433,131.3267
92012,旧東,25.8467,131.2633
91141,北原,26.3633,126.7133
91046,国頭,26.7283,128.1783
91166,宮城島,26.3633,127.9733
