,_id,name,lat,lon
0,11016,稚内,45.415,141.6783
1,11151,沓形,45.1767,141.1383
2,11206,浜頓別,45.125,142.35
3,11291,北見枝幸,44.94,142.585
4,11316,歌登,44.84,142.48
5,11276,中頓別,44.965,142.28
6,11176,豊富,45.1067,141.765
7,11121,沼川,45.2483,141.8517
9,11001,宗谷岬,45.52,141.935
10,11076,浜鬼志別,45.335,142.17
11,11091,本泊,45.2417,141.1867
12,11061,声問,45.4033,141.8
13,11046,礼文,45.305,141.045
15,13011,幌延,45.0067,141.8517
16,12141,美深,44.48,142.3417
18,12181,名寄,44.37,142.4567
19,12217,西風連,44.295,142.3583
20,12231,下川,44.3017,142.6233
21,12261,士別,44.1867,142.4167
25,12411,上川,43.8467,142.7533
26,12442,旭川,43.7567,142.3717
27,12457,瑞穂,43.7367,142.6383
30,12607,白金,43.475,142.6483
31,12626,富良野,43.3333,142.4
34,12266,朝日,44.1183,142.595
35,12396,比布,43.875,142.48
36,12471,層雲峡,43.7533,142.93
37,12551,美瑛,43.5883,142.4933
38,12301,和寒,44.0283,142.41
39,12451,東川,43.7017,142.5083
40,12512,志比内,43.6433,142.5817
41,12691,幾寅,43.1683,142.5683
42,12746,占冠,42.9783,142.395
43,12596,上富良野,43.455,142.465
44,12386,江丹別,43.87,142.26
45,12041,音威子府,44.7267,142.265
46,12011,中川,44.8283,142.0767
47,12632,麓郷,43.3017,142.5217
48,12501,東神楽,43.67,142.4467
49,12066,小車,44.6083,142.295
50,12256,剣淵,44.1067,142.3533
51,12686,金山,43.1383,142.4167
52,15076,幌加内,44.01,142.16
53,15041,朱鞠内,44.2817,142.1617
54,13061,天塩,44.8933,141.7617
55,13086,遠別,44.7183,141.8067
56,13181,羽幌,44.3633,141.7
57,13277,留萌,43.945,141.6317
58,13311,増毛,43.8483,141.51
59,13206,古丹別,44.265,141.7217
60,13146,焼尻,44.4283,141.4217
61,13121,初山別,44.5233,141.77
62,13261,達布,44.0483,141.8567
63,13321,幌糠,43.8533,141.76
65,14101,新篠津,43.22,141.645
66,14116,山口,43.1467,141.2217
67,14157,手稲山,43.0833,141.2017
68,14163,札幌,43.06,141.3283
69,14191,小金湯,42.9633,141.2167
70,14206,恵庭島松,42.925,141.565
72,14286,支笏湖畔,42.7717,141.4067
74,14121,石狩,43.1933,141.37
75,14026,浜益,43.5817,141.3867
76,14071,厚田,43.3983,141.4367
77,14296,千歳,42.775,141.6917
78,14136,江別,43.11,141.6017
79,15116,石狩沼田,43.815,141.9267
80,15161,深川,43.7183,142.0733
82,15241,滝川,43.57,141.9383
84,15251,芦別,43.5167,142.19
85,15321,美唄,43.3633,141.8267
86,15356,岩見沢,43.2117,141.785
88,15431,長沼,43.0117,141.6933
90,15442,夕張,43.0383,141.9567
92,15311,月形,43.33,141.6183
93,15391,栗沢,43.1217,141.745
96,15231,空知吉野,43.595,141.7317
97,15276,浦臼,43.4283,141.81
98,15451,鹿島,43.08,142.1
99,15491,沼の沢,42.96,142.02
100,15216,新城,43.6117,142.2033
101,15247,赤平,43.5533,142.0667
102,15197,雨竜,43.66,141.8917
103,16026,美国,43.2717,140.5633
104,16076,余市,43.1817,140.7583
105,16091,小樽,43.1817,141.0167
106,16156,共和,42.98,140.6033
107,16206,蘭越,42.81,140.5417
108,16217,倶知安,42.9,140.7567
110,16252,寿都,42.795,140.2233
112,16286,喜茂別,42.7933,140.9483
113,16321,黒松内,42.6633,140.31
114,16281,真狩,42.775,140.88
115,16126,赤井川,43.0833,140.82
116,16061,神恵内,43.145,140.4233
117,16272,ニセコ,42.7783,140.6667
118,17036,雄武,44.58,142.9633
119,17076,興部,44.47,143.1083
120,17112,紋別,44.345,143.355
121,17166,湧別,44.2133,143.62
122,17196,滝上,44.1767,143.06
123,17211,上藻別,44.1883,143.3367
124,17246,常呂,44.115,144.0367
125,17306,遠軽,44.0533,143.54
126,17316,佐呂間,43.985,143.7233
127,17341,網走,44.0167,144.2783
128,17501,生田原,43.9167,143.5317
129,17512,仁頃山,43.86,143.7467
130,17521,北見,43.81,143.875
131,17546,小清水,43.8417,144.485
132,17561,斜里,43.8833,144.7
133,17596,留辺蘂,43.7417,143.45
135,17631,美幌,43.77,144.1717
138,17717,津別,43.7017,144.0333
140,17351,宇登呂,44.0517,144.9817
141,17091,西興部,44.3317,142.9367
142,17482,白滝,43.865,143.1533
143,17607,境野,43.7067,143.6433
144,17541,東藻琴,43.84,144.285
145,17386,丸瀬布,43.9533,143.3283
146,17531,女満別,43.88,144.1633
147,17116,紋別小向,44.3033,143.4033
148,17776,津別二又,43.5833,143.865
149,17686,置戸常元,43.62,143.44
150,17642,山園,43.7433,144.3367
151,18038,羅臼,44.0233,145.1867
152,18136,標津,43.6617,145.1317
153,18171,中標津,43.5433,144.9783
155,18256,別海,43.3817,145.1183
156,18273,根室,43.33,145.585
157,18281,納沙布,43.3933,145.7583
158,18311,厚床,43.2317,145.2583
159,18091,糸櫛別,43.7217,144.9883
160,18174,根室中標津,43.5767,144.96
161,18161,上標津,43.52,144.7467
162,19021,川湯,43.6167,144.4567
163,19076,阿寒湖畔,43.4367,144.085
165,19151,標茶,43.2917,144.5867
167,19261,中徹別,43.1983,144.1417
168,19346,阿寒,43.1133,144.1233
170,19416,白糠,42.97,144.0617
171,19432,釧路,42.985,144.3767
172,19406,二俣,42.9717,143.8917
173,19191,鶴居,43.2317,144.325
174,19051,弟子屈,43.51,144.4667
175,19376,太田,43.09,144.7783
176,19311,榊町,43.12,145.11
177,19451,知方学,42.9383,144.735
178,19281,塘路,43.1483,144.4967
179,19301,茶内原野,43.1733,144.9667
180,19347,鶴丘,43.04,144.1917
182,20146,陸別,43.4683,143.7383
184,20186,ぬかびら源泉郷,43.3667,143.1917
188,20266,上士幌,43.235,143.3033
190,20276,足寄,43.2433,143.5533
193,20341,本別,43.1317,143.6
194,20356,新得,43.0767,142.84
195,20361,鹿追,43.1033,142.995
196,20421,芽室,42.9,143.0433
197,20432,帯広,42.9217,143.2117
198,20441,池田,42.92,143.4583
199,20506,浦幌,42.8083,143.6567
202,20696,大樹,42.5,143.275
203,20751,広尾,42.2933,143.315
205,20371,駒場,43.05,143.1833
206,20601,上札内,42.6417,143.0967
207,20606,更別,42.6483,143.19
208,20631,大津,42.685,143.6467
209,20556,糠内,42.7867,143.3283
210,20071,小利別,43.5883,143.68
211,20331,押帯,43.115,143.4433
212,20202,柏倉,43.3617,143.4583
213,20222,上螺湾,43.3183,143.8017
214,20451,留真,42.9167,143.6617
215,20551,帯広泉,42.7333,143.2167
216,20047,三股,43.51,143.1483
217,21031,安平,42.8133,141.8283
218,21111,厚真,42.73,141.8883
219,21126,穂別,42.7617,142.1433
220,21171,森野,42.63,141.2467
221,21187,苫小牧,42.6233,141.5467
222,21226,大岸,42.59,140.6433
224,21261,白老,42.5433,141.3517
225,21276,鵡川,42.59,141.9333
226,21297,伊達,42.4733,140.8767
228,21312,登別,42.4583,141.1183
229,21323,室蘭,42.3117,140.975
230,21161,大滝,42.67,141.0783
231,21237,洞爺湖温泉,42.565,140.8067
232,21251,カルルス,42.5167,141.1067
241,22141,日高門別,42.5217,142.0367
242,22156,新和,42.5433,142.3333
244,22206,笹山,42.4333,142.4817
245,22241,静内,42.3433,142.3617
247,22327,浦河,42.1617,142.7767
248,22072,仁世宇,42.7717,142.3583
249,22291,三石,42.245,142.6617
250,22036,日高,42.8767,142.4417
251,22366,幌満,42.0767,143.035
252,22356,目黒,42.1267,143.3133
253,22306,中杵臼,42.2233,142.9483
254,22391,えりも岬,41.925,143.2433
255,22106,旭,42.6283,142.3933
257,23031,長万部,42.5233,140.3817
258,23086,八雲,42.2517,140.2717
259,23166,森,42.0667,140.5883
260,23191,大沼,41.9767,140.715
261,23206,川汲,41.905,140.97
262,23226,北斗,41.8867,140.6533
263,23232,函館,41.8167,140.7533
266,23376,松前,41.4233,140.0867
267,23326,木古内,41.6867,140.445
268,23356,千軒,41.5583,140.2717
270,23281,高松,41.77,140.8217
271,23291,戸井泊,41.7167,141.0033
272,23321,知内,41.5983,140.375
273,24141,熊石,42.1283,139.985
274,24041,せたな,42.45,139.8517
275,24051,今金,42.4283,140.0083
276,24166,潮見,42.0383,140.0883
277,24217,江差,41.8667,140.1233
278,24101,奥尻,42.2483,139.5567
279,24201,鶉,41.93,140.3117
280,24236,石崎,41.7,140.0283
281,24156,米岡,42.0717,139.4317
283,31111,むつ,41.2833,141.21
284,31201,蟹田,41.045,140.6333
285,31312,青森,40.8217,140.7683
286,31332,野辺地,40.885,141.16
287,31366,鰺ケ沢,40.7767,140.205
288,31296,五所川原,40.8083,140.4583
289,31436,深浦,40.645,139.9317
290,31461,弘前,40.6117,140.455
291,31466,黒石,40.6667,140.585
293,31506,三沢,40.675,141.375
296,31586,十和田,40.595,141.2467
297,31602,八戸,40.5267,141.5217
298,31551,大鰐,40.53,140.555
299,31646,碇ケ関,40.4817,140.62
301,31662,休屋,40.4267,140.8983
303,31721,三戸,40.3833,141.2567
304,31136,今別,41.18,140.4817
305,31336,六ケ所,40.885,141.2717
306,31001,大間,41.5267,140.9117
307,31321,大和山,40.8483,140.985
308,31482,酸ケ湯,40.6483,140.8483
309,31451,岳,40.6283,140.2633
311,31186,市浦,41.0567,140.3467
312,31121,小田野沢,41.235,141.3967
313,31156,脇野沢,41.145,140.8217
314,31411,七戸,40.7083,141.1283
315,31671,戸来,40.4683,141.1767
316,31562,温川,40.515,140.7833
317,31386,青森大谷,40.7333,140.6883
318,31036,湯野川,41.3133,140.9567
320,32091,陣場,40.4033,140.6083
322,32111,能代,40.1983,140.0317
323,32126,鷹巣,40.2267,140.3717
324,32146,鹿角,40.215,140.7867
325,32206,湯瀬,40.12,140.84
327,32296,五城目,39.9383,140.115
329,32402,秋田,39.7167,140.0983
331,32407,岩見三内,39.7067,140.2867
332,32466,角館,39.6033,140.5567
333,32476,田沢湖,39.6983,140.7317
334,32551,大曲,39.49,140.495
335,32571,本荘,39.36,140.055
337,32596,横手,39.32,140.555
338,32616,象潟,39.2217,139.9017
339,32626,矢島,39.235,140.1367
341,32691,湯沢,39.1867,140.4633
343,32771,湯の岱,38.96,140.5283
344,32136,大館,40.2517,140.505
345,32287,大潟,40.0,139.95
346,32286,男鹿,39.9117,139.9
347,32056,八森,40.3883,139.9817
348,32496,大正寺,39.5267,140.2333
349,32701,東成瀬,39.1783,140.6483
350,32312,比立内,39.9033,140.45
351,32581,東由利,39.305,140.2883
352,32311,阿仁合,39.9933,140.4033
353,32426,鎧畑,39.775,140.665
354,32071,藤里,40.32,140.2933
355,32376,桧木内,39.8117,140.585
356,32266,八幡平,40.0133,140.8017
357,32681,笹子,39.1033,140.2933
358,32096,藤原,40.355,140.7817
359,32276,男鹿真山,39.9383,139.7817
360,32408,仁別,39.8,140.2167
361,32181,脇神,40.1917,140.3717
362,32451,雄和,39.615,140.2183
363,33006,種市,40.4033,141.7
364,33026,軽米,40.3183,141.47
365,33071,二戸,40.2967,141.2983
367,33146,久慈,40.1883,141.775
369,33186,葛巻,40.0383,141.4367
372,33226,岩手松尾,39.9517,141.065
376,33326,岩泉,39.8467,141.7967
379,33421,雫石,39.6967,140.975
380,33431,盛岡,39.6983,141.165
381,33472,宮古,39.6467,141.965
384,33566,豊沢,39.48,140.9683
385,33576,花巻,39.4283,141.135
386,33581,大迫,39.47,141.2783
387,33631,湯田,39.31,140.7767
388,33716,北上,39.2883,141.11
389,33671,遠野,39.3367,141.5383
391,33751,釜石,39.27,141.8783
393,33776,若柳,39.1317,141.0633
394,33781,江刺,39.1833,141.1617
395,33877,大船渡,39.0633,141.7133
396,33911,一関,38.9333,141.125
397,33921,千厩,38.9217,141.33
399,33831,祭畤,39.01,140.865
400,33296,好摩,39.8683,141.1667
401,33616,山田,39.45,141.9567
402,33086,大野,40.28,141.6667
403,33841,衣川,39.05,141.045
404,33371,薮川,39.7833,141.3283
405,33726,米里,39.2333,141.31
406,33561,沢内,39.48,140.7983
407,33166,荒屋,40.1033,141.05
408,33206,普代,40.0033,141.8833
409,33501,紫波,39.5467,141.1267
410,33351,葛根田,39.775,140.945
411,33801,住田,39.1417,141.5733
412,33336,小本,39.84,141.955
413,33176,奥中山,40.06,141.225
414,33136,山形,40.1483,141.5717
415,33526,川井,39.5983,141.6817
417,33201,下戸鎖,40.0833,141.7117
418,33441,区界,39.65,141.3533
419,33611,大槌,39.4383,141.8067
420,33856,大東,39.0383,141.2967
421,33711,金ヶ崎,39.225,141.015
422,33361,滝沢,39.78,141.0967
423,33596,附馬牛,39.4567,141.5067
425,33461,刈屋,39.6417,141.7733
426,33686,小鎚,39.36,141.8783
427,33871,陸前高田,39.025,141.63
429,34026,気仙沼,38.9083,141.555
430,34096,川渡,38.7433,140.76
431,34111,築館,38.735,141.005
433,34186,志津川,38.6817,141.4483
434,34216,古川,38.5983,140.9117
435,34266,大衡,38.4733,140.8883
436,34276,鹿島台,38.46,141.0917
437,34292,石巻,38.4267,141.2983
438,34311,新川,38.3033,140.6367
440,34392,仙台,38.2617,140.8967
443,34461,白石,38.015,140.6117
444,34471,亘理,38.025,140.8583
445,34241,雄勝,38.5217,141.47
446,34171,米山,38.6267,141.1883
447,34331,塩釜,38.3383,141.0133
448,34012,駒ノ湯,38.9133,140.8283
449,34506,丸森,37.9317,140.7783
451,34361,江ノ島,38.3983,141.5967
452,34526,筆甫,37.8267,140.7283
453,34262,泉ケ岳,38.4067,140.7217
454,34436,名取,38.1383,140.9167
455,34056,鴬沢,38.805,140.9483
456,34206,加美,38.5717,140.7267
457,34462,蔵王,38.1267,140.68
460,34296,女川,38.4533,141.44
461,34231,桃生,38.56,141.245
462,34286,東松島,38.4267,141.2133
463,34431,岩沼,38.1067,140.8767
465,35052,酒田,38.9083,139.8433
466,35071,差首鍋,38.9183,140.2
468,35116,金山,38.8783,140.3317
469,35141,鶴岡,38.735,139.8283
470,35146,狩川,38.8,139.9733
471,35162,新庄,38.7567,140.3117
472,35171,瀬見,38.755,140.4133
474,35201,櫛引,38.6717,139.8483
478,35376,左沢,38.37,140.1917
479,35426,山形,38.255,140.345
481,35456,長井,38.105,140.015
483,35486,小国,38.0783,139.735
484,35541,高峰,37.9983,139.9567
485,35552,米沢,37.9117,140.1433
487,35176,向町,38.7583,140.5167
488,35061,上草津,38.995,140.0283
489,35231,尾花沢,38.6083,140.4117
490,35246,鼠ケ関,38.5667,139.5517
492,35216,肘折,38.6067,140.1633
493,35511,高畠,38.0033,140.2067
495,35002,飛島,39.1833,139.5433
496,35361,大井沢,38.39,139.9933
497,35256,荒沢,38.5067,139.7817
498,35537,中津川,37.91,139.8433
500,35086,浜中,38.8117,139.7867
501,35334,東根,38.4117,140.37
502,35332,村山,38.46,140.3483
503,35466,上山中山,38.1167,140.2133
504,36411,浪江,37.4917,140.965
505,36591,小野新町,37.2867,140.625
506,36611,広野,37.2333,141.0
507,36501,川内,37.3367,140.8083
508,36151,相馬,37.7833,140.925
509,36476,郡山,37.3683,140.33
510,36066,梁川,37.8517,140.5883
513,36126,福島,37.7583,140.47
514,36176,喜多方,37.6583,139.8633
516,36231,原町,37.6383,140.985
518,36276,猪苗代,37.555,140.1217
519,36291,二本松,37.5833,140.43
521,36361,若松,37.4883,139.91
522,36391,船引,37.435,140.5767
524,36426,只見,37.3433,139.3133
526,36511,富岡,37.3467,141.0167
527,36536,南郷,37.265,139.5367
529,36641,田島,37.2067,139.795
531,36667,白河,37.1317,140.215
532,36676,石川,37.1467,140.46
535,36781,平,37.065,140.8767
537,36821,東白川,36.9383,140.4083
538,36846,小名浜,36.9467,140.9033
539,36251,西会津,37.5883,139.6567
540,36342,金山,37.4733,139.5283
541,36196,鷲倉,37.6683,140.26
543,36221,飯舘,37.695,140.7467
544,36307,津島,37.56,140.7533
545,36571,長沼,37.2883,140.2183
546,36726,舘岩,37.0917,139.5317
547,36596,川前,37.2067,140.75
548,36106,桧原,37.7217,140.0583
549,36056,茂庭,37.8917,140.4367
550,36562,湯本,37.2767,140.0633
551,36716,桧枝岐,37.0233,139.3867
554,36461,湖南,37.3883,140.09
555,36581,玉川,37.2267,140.4267
556,36836,山田,36.9333,140.7333
557,36081,新地,37.875,140.9183
558,36766,古殿,37.09,140.56
559,40041,花園,36.8683,140.6367
560,40046,北茨城,36.8333,140.7717
561,40061,大子,36.7783,140.345
563,40191,笠間,36.3833,140.2367
564,40201,水戸,36.38,140.4667
565,40221,古河,36.2017,139.7167
567,40281,下妻,36.1683,139.945
568,40326,坂東,36.035,139.8933
569,40341,土浦,36.1033,140.22
570,40406,鹿嶋,35.9633,140.6217
571,40391,江戸崎,35.96,140.32
572,40136,日立,36.5983,140.65
573,40241,柿岡,36.2333,140.1883
574,40251,美野里,36.2367,140.325
575,40426,龍ケ崎,35.89,140.2117
577,40126,中野,36.515,140.4733
578,40066,徳田,36.7783,140.4817
579,40311,鉾田,36.1683,140.5267
580,40091,常陸大宮,36.6067,140.325
581,40181,門井,36.3333,140.0333
582,40076,大能,36.7433,140.5917
583,40336,つくば(館野),36.0567,140.125
584,40231,下館,36.2817,139.9883
585,40081,高萩,36.7067,140.7167
586,41011,那須,37.1233,140.035
589,41091,黒磯,36.9817,140.0183
591,41141,大田原,36.84,140.035
592,41166,奥日光(日光),36.7383,139.5
594,41241,高根沢,36.6067,139.9983
595,41271,鹿沼,36.5917,139.735
596,41277,宇都宮,36.5483,139.8683
597,41311,葛生,36.4333,139.59
598,41331,真岡,36.4783,139.9867
599,41356,足利,36.3017,139.4733
600,41371,栃木,36.3733,139.7033
601,41376,小山,36.3383,139.83
602,41076,五十里,36.9217,139.695
603,41211,足尾,36.6467,139.4483
605,41361,佐野,36.3633,139.57
606,41116,土呂部,36.8933,139.5683
607,41171,今市,36.7267,139.6767
608,41181,塩谷,36.7567,139.8833
609,41247,那須烏山,36.6417,140.1167
611,42121,草津,36.6167,138.5917
614,42146,沼田,36.6533,139.06
616,42221,田代,36.4633,138.4633
617,42241,榛名山,36.4717,138.8733
618,42251,前橋,36.405,139.06
619,42266,桐生,36.3833,139.345
621,42286,上里見,36.3767,138.895
622,42326,西野牧,36.245,138.7067
623,42341,藤岡,36.25,139.0733
624,42366,館林,36.2333,139.5317
626,42091,みなかみ,36.8,138.9917
627,42186,中之条,36.5867,138.85
628,42302,伊勢崎,36.3317,139.165
629,42106,片品,36.7717,139.2383
630,42046,藤原,36.8633,139.0583
631,42396,神流,36.1083,138.8967
632,42261,黒保根,36.5017,139.2833
634,43056,熊谷,36.15,139.38
635,43126,久喜,36.0867,139.635
636,43156,秩父,35.99,139.0733
638,43231,飯能,35.8383,139.3217
639,43241,さいたま,35.875,139.5867
640,43256,越谷,35.8833,139.7567
641,43151,三峰,35.9267,138.9233
642,43051,寄居,36.105,139.1833
643,43121,鴻巣,36.065,139.5217
644,43266,所沢,35.7733,139.4133
645,43157,浦山,35.92,139.07
646,43091,上吉田,36.0533,138.98
647,43171,鳩山,35.985,139.335
648,43162,ときがわ,35.99,139.2067
649,44046,小河内,35.7917,139.05
650,44112,八王子,35.6667,139.3167
652,44126,世田谷,35.6267,139.62
653,44132,東京,35.69,139.76
654,44136,江戸川臨海,35.6383,139.8633
655,44166,羽田,35.5533,139.78
656,44172,大島,34.7483,139.3617
657,44226,三宅島,34.1233,139.5217
658,44263,八丈島,33.1217,139.7783
659,44056,青梅,35.7883,139.3117
660,44076,練馬,35.735,139.6683
661,44116,府中,35.6833,139.4817
663,44051,小沢,35.735,139.1233
664,44301,父島,27.0917,142.19
665,44173,大島北ノ山,34.7817,139.36
666,44262,八重見ヶ原,33.115,139.785
668,44228,三宅坪田,34.0733,139.56
670,44207,新島,34.3683,139.2683
671,44216,神津島,34.1883,139.1333
673,44356,南鳥島,24.2883,153.9833
674,44316,母島,26.635,142.1617
675,45081,香取,35.8583,140.5017
676,45061,我孫子,35.8633,140.11
677,45086,東庄,35.8217,140.685
678,45121,成田,35.7633,140.385
679,45147,銚子,35.7383,140.8567
680,45212,千葉,35.6017,140.1033
681,45261,茂原,35.4167,140.31
682,45282,木更津,35.3617,139.94
683,45346,鋸南,35.1217,139.8367
684,45361,鴨川,35.1117,140.1
685,45371,勝浦,35.15,140.3117
686,45401,館山,34.9867,139.865
687,45116,佐倉,35.7283,140.2117
688,45181,横芝光,35.6567,140.48
689,45331,大多喜,35.2517,140.215
690,45106,船橋,35.7117,140.0433
691,45291,牛久,35.3967,140.1483
692,45326,坂畑,35.235,140.0983
693,46001,相模湖,35.6133,139.1933
694,46091,海老名,35.4333,139.3867
695,46106,横浜,35.4383,139.6517
696,46161,箱根,35.2217,139.0417
698,46211,三浦,35.1783,139.63
699,46046,相模原中央,35.5717,139.37
700,46061,日吉,35.5517,139.65
701,46136,平塚,35.345,139.305
702,46166,小田原,35.2767,139.155
703,46076,丹沢湖,35.41,139.0433
704,46141,辻堂,35.32,139.45
705,48031,野沢温泉,36.9117,138.4417
706,48061,信濃町,36.8083,138.1983
707,48066,飯山,36.875,138.375
708,48141,白馬,36.6983,137.8617
709,48156,長野,36.6617,138.1917
710,48172,笠岳,36.6667,138.4567
711,48191,大町,36.5233,137.8333
712,48196,信州新町,36.5483,137.9967
714,48256,上田,36.4,138.265
716,48296,穂高,36.3433,137.8817
717,48331,軽井沢,36.3417,138.5467
718,48361,松本,36.245,137.97
719,48371,鹿教湯,36.3017,138.1367
720,48386,佐久,36.2467,138.4767
723,48491,諏訪,36.045,138.1083
725,48541,木曽平沢,35.9833,137.835
726,48561,原村,35.97,138.22
727,48571,野辺山,35.9483,138.4717
728,48601,御嶽山,35.8717,137.5033
729,48606,木曽福島,35.84,137.6883
732,48681,宮田高原,35.7733,137.885
734,48716,須原,35.6983,137.6917
736,48731,飯島,35.6533,137.8983
738,48767,飯田,35.5233,137.8217
741,48216,菅平,36.5317,138.325
742,48321,東御,36.3833,138.3833
743,48346,上高地,36.2467,137.6333
744,48717,南木曽,35.61,137.62
746,48146,鬼無里,36.6883,137.965
747,48381,立科,36.2717,138.3133
748,48466,奈川,36.0883,137.6833
749,48531,開田高原,35.9383,137.6017
750,48826,浪合,35.3733,137.6917
751,48546,辰野,35.9817,137.9833
752,48841,南信濃,35.3217,137.9317
753,48836,阿南,35.3133,137.8117
754,48247,聖高原,36.4867,138.0683
756,48737,大鹿,35.5567,138.04
757,48691,杉島,35.7267,138.0933
759,48097,小谷,36.8217,137.93
760,48621,伊那,35.8267,137.955
761,48363,松本今井,36.1667,137.9217
762,48516,北相木,36.0717,138.6117
763,48436,白樺湖,36.105,138.2283
764,48556,高遠,35.9533,138.1083
769,49142,甲府,35.6667,138.5533
770,49151,勝沼,35.6633,138.725
771,49161,大月,35.6083,138.9383
772,49186,八町山,35.5433,138.4117
773,49196,古関,35.5283,138.615
774,49251,河口湖,35.5,138.76
775,49256,山中,35.4367,138.8367
776,49316,南部,35.2883,138.445
777,49036,大泉,35.8617,138.3867
778,49086,韮崎,35.6933,138.4483
779,49171,上野原,35.6217,139.1133
780,49236,切石,35.4667,138.4417
781,50066,富士山,35.36,138.7267
782,49052,乙女湖,35.8067,138.655
783,50056,白糸,35.3117,138.5783
784,50136,御殿場,35.305,138.9267
785,50196,富士,35.185,138.6633
786,50206,三島,35.1133,138.925
787,50231,越木平,35.01,137.98
788,50241,川根本町,35.1017,138.1283
790,50281,網代,35.045,139.0917
791,50317,高根山,34.975,138.1967
792,50331,静岡,34.975,138.4033
794,50386,天竜,34.89,137.8133
796,50426,湯ケ島,34.9,138.925
797,50427,天城山,34.8717,139.0233
798,50456,浜松,34.7083,137.7183
799,50491,松崎,34.755,138.7833
800,50506,稲取,34.7817,139.0483
801,50551,御前崎,34.6033,138.2117
802,50561,石廊崎,34.6033,138.8417
803,50226,佐久間,35.0567,137.7617
804,50416,土肥,34.8767,138.76
805,50371,三ヶ日,34.8017,137.5567
806,50466,掛川,34.78,137.9667
807,50296,熊,34.9583,137.7333
809,50111,梅ケ島,35.2367,138.3417
810,50261,清水,35.0533,138.5217
811,50536,磐田,34.6917,137.88
812,50476,菊川牧之原,34.785,138.1383
813,50106,井川,35.2167,138.2217
814,50391,三倉,34.895,137.94
815,50247,鍵穴,35.0483,138.2467
816,50066,富士山,35.36,138.7267
817,50477,静岡空港,34.795,138.1883
818,51011,一宮,35.2983,136.8533
820,51077,茶臼山,35.22,137.6583
821,51106,名古屋,35.1667,136.965
822,51116,豊田,35.1317,137.1767
823,51161,東海,35.0233,136.9017
825,51226,岡崎,34.9183,137.1933
826,51241,作手,34.9767,137.425
827,51271,一色,34.8117,137.0283
828,51331,豊橋,34.75,137.3417
829,51346,伊良湖,34.6283,137.0933
830,51356,田原,34.6267,137.2217
831,51071,稲武,35.2117,137.5067
832,51096,蟹江,35.1367,136.7917
833,51311,南知多,34.74,136.9383
834,51056,小原,35.2283,137.285
836,51281,蒲郡,34.845,137.2167
837,51031,愛西,35.2167,136.6983
838,51247,新城,34.9067,137.5167
839,51261,セントレア,34.8583,136.805
840,51192,阿蔵,35.0783,137.4133
841,52051,神岡,36.3217,137.3083
844,52146,高山,36.155,137.2533
848,52192,船山,36.035,137.26
851,52286,萩原,35.8883,137.2067
853,52331,八幡,35.7567,136.9783
854,52381,樽見,35.6383,136.6033
855,52406,金山,35.6633,137.16
858,52476,伽藍,35.515,137.23
859,52536,美濃加茂,35.445,137.005
861,52556,恵那,35.4467,137.4033
862,52557,中津川,35.4767,137.4867
863,52571,関ケ原,35.3633,136.4667
864,52581,大垣,35.3467,136.62
865,52586,岐阜,35.4,136.7617
867,52461,美濃,35.5567,136.91
868,52606,多治見,35.3467,137.1083
869,52641,上石津,35.295,136.4717
870,52111,栃尾,36.2483,137.5033
871,52346,宮地,35.7633,137.2883
873,52221,長滝,35.925,136.8317
874,52511,揖斐川,35.485,136.5667
875,52181,六厩,36.06,137.0333
876,52081,白川,36.2733,136.8967
877,52041,河合,36.305,137.1
878,52196,宮之前,36.015,137.3883
879,52482,黒川,35.5983,137.3183
881,52421,付知,35.6567,137.4267
882,52131,御母衣,36.1467,136.9083
885,52173,ひるがの,36.01,136.895
886,52137,清見,36.18,137.045
887,52152,丹生川,36.1883,137.3717
888,52321,関市板取,35.7233,136.7833
889,53016,北勢,35.1433,136.5383
890,53041,桑名,35.05,136.6933
892,53061,四日市,34.94,136.58
893,53091,亀山,34.87,136.4533
894,53112,上野,34.7617,136.1417
895,53121,笠取山,34.725,136.3083
896,53132,津,34.7333,136.5183
897,53141,名張,34.635,136.1117
899,53196,小俣,34.5283,136.665
900,53231,粥見,34.4483,136.39
901,53287,藤坂峠,34.3233,136.4883
902,53378,尾鷲,34.07,136.1933
908,53257,鳥羽,34.4817,136.825
909,53321,宮川,34.2783,136.2083
910,53296,南伊勢,34.345,136.6817
911,53326,紀伊長島,34.2083,136.3267
912,53151,白山,34.625,136.3217
913,53307,阿児,34.3283,136.8317
914,53416,御浜,33.8517,135.98
915,53401,熊野新鹿,33.9317,136.1383
916,54086,村上,38.2267,139.4783
918,54157,相川,38.0283,138.24
919,54166,両津,38.0733,138.44
920,54232,新潟,37.9117,139.0467
922,54296,新津,37.7917,139.0867
923,54341,巻,37.7683,138.9133
925,54387,寺泊,37.64,138.7667
926,54396,三条,37.64,138.955
927,54406,村松,37.6967,139.1883
928,54421,津川,37.6717,139.4467
930,54501,長岡,37.45,138.8233
931,54506,栃尾,37.475,138.9917
933,54541,柏崎,37.3517,138.5533
935,54616,小出,37.2383,138.9617
936,54651,高田,37.1067,138.2467
937,54661,安塚,37.1067,138.4567
938,54676,十日町,37.1433,138.7267
940,54711,糸魚川,37.0383,137.8617
941,54721,能生,37.0833,138.0233
944,54836,津南,36.9967,138.6833
945,54841,湯沢,36.9417,138.81
947,54011,粟島,38.4617,139.2517
948,54271,羽茂,37.8417,138.3133
949,54566,入広瀬,37.3567,139.0717
950,54816,関山,36.9333,138.2217
951,54191,下関,38.0917,139.5633
953,54311,赤谷,37.835,139.415
954,54606,小国,37.2917,138.7017
955,54671,松代,37.1317,138.6067
956,54056,高根,38.33,139.605
957,54876,平岩,36.8867,137.8633
958,54586,大潟,37.225,138.325
959,54041,弾崎,38.33,138.5117
960,54181,中条,38.06,139.4083
961,54097,三面,38.2467,139.605
962,54621,大湯,37.205,139.0617
963,54761,塩沢,37.0383,138.8467
964,54462,宮寄上,37.58,139.14
965,54892,樽本,36.89,138.275
966,54666,川谷,37.2,138.5167
967,54737,筒方,37.03,138.3433
968,54472,室谷,37.55,139.37
969,54236,松浜,37.955,139.1117
970,54167,秋津,38.06,138.4133
971,55021,泊,36.9517,137.5517
972,55056,魚津,36.8217,137.4283
975,55091,伏木,36.7917,137.055
976,55102,富山,36.7083,137.2017
977,55141,砺波,36.61,136.955
978,55166,上市,36.67,137.4233
979,55191,南砺高宮,36.545,136.8717
980,55206,八尾,36.5783,137.1317
985,55041,氷見,36.8633,136.96
986,55063,宇奈月,36.8467,137.5567
988,55156,大山,36.6083,137.2833
990,55267,猪谷,36.4733,137.2367
991,55151,秋ヶ島,36.6483,137.1867
992,55252,五箇山,36.43,136.9417
993,55217,立山芦峅,36.5767,137.385
994,56036,珠洲,37.4467,137.2867
995,56052,輪島,37.3917,136.895
996,56081,門前,37.2617,136.7283
998,56116,志賀,37.1433,136.725
999,56146,七尾,37.03,136.9917
1000,56176,羽咋,36.8933,136.7767
1001,56186,かほく,36.7117,136.6917
1003,56227,金沢,36.5883,136.6333
1004,56232,医王山,36.52,136.745
1005,56301,栢野,36.225,136.3583
1006,56286,白山吉野,36.3617,136.6133
1007,56346,白山白峰,36.18,136.625
1008,56276,小松,36.3817,136.435
1010,56093,三井,37.2933,136.9617
1011,56192,宝達志水,36.7883,136.7683
1012,57066,福井,36.055,136.2217
1013,57121,大野,35.9717,136.4967
1017,57206,今庄,35.7667,136.2
1018,57248,敦賀,35.6533,136.0617
1019,57317,小浜,35.4833,135.7817
1020,57071,美山,35.9983,136.3583
1022,57286,美浜,35.6,135.9167
1023,57001,三国,36.2433,136.1733
1024,57082,勝山,36.0383,136.5217
1025,57051,越廼,36.0117,135.99
1026,57176,九頭竜,35.905,136.67
1027,57311,大飯,35.48,135.6167
1028,57026,春江,36.1417,136.2233
1029,57106,武生,35.9067,136.175
1030,60051,今津,35.4117,136.0283
1033,60131,彦根,35.275,136.2433
1034,60161,近江八幡,35.1267,136.0967
1036,60216,大津,34.9917,135.9117
1037,60236,土山,34.9383,136.2783
1038,60196,東近江,35.0617,136.19
1039,60226,信楽,34.9133,136.08
1040,60061,長浜,35.4233,136.2417
1041,60116,南小松,35.235,135.9567
1042,60026,柳ケ瀬,35.5817,136.1883
1044,60102,米原,35.3833,136.3433
1045,60081,朽木平良,35.3083,135.83
1047,61031,峰山,35.6183,135.0717
1048,61076,宮津,35.55,135.235
1049,61111,舞鶴,35.45,135.3167
1052,61187,福知山,35.3117,135.1133
1055,61242,園部,35.1083,135.455
1056,61286,京都,35.015,135.7317
1057,61326,京田辺,34.83,135.76
1061,61251,京北,35.18,135.6617
1062,61001,間人,35.7367,135.0867
1063,61201,本庄,35.26,135.395
1064,61306,長岡京,34.93,135.7283
1065,61151,故屋岡,35.385,135.4567
1066,61206,美山,35.275,135.55
1067,61241,須知,35.1767,135.42
1068,61132,三岳,35.3667,135.05
1069,61191,綾部,35.2933,135.2583
1070,61192,三和,35.2167,135.2317
1071,62016,能勢,34.9483,135.455
1073,62051,豊中,34.7833,135.4383
1074,62078,大阪,34.6817,135.5183
1075,62081,生駒山,34.675,135.6767
1076,62111,河内長野,34.4233,135.5433
1077,62131,熊取,34.385,135.35
1078,62091,堺,34.555,135.485
1079,62046,枚方,34.8083,135.6717
1080,62096,八尾,34.5967,135.6
1081,62101,関空島,34.4333,135.2317
1082,62037,茨木,34.86,135.56
1083,63016,香住,35.625,134.6267
1084,63032,温泉,35.5283,134.48
1086,63051,豊岡,35.535,134.8217
1087,63116,八鹿,35.3983,134.74
1088,63121,和田山,35.3233,134.8483
1089,63201,生野,35.1667,134.7917
1090,63216,柏原,35.1483,135.0467
1091,63251,一宮,35.0967,134.585
1093,63241,佐用,35.0167,134.3683
1094,63346,後川,35.025,135.2933
1095,63366,上郡,34.8583,134.3733
1097,63383,姫路,34.8383,134.67
1100,63491,家島,34.6717,134.5267
1101,63496,明石,34.6867,134.8767
1102,63518,神戸,34.6967,135.2117
1103,63576,洲本,34.3383,134.905
1105,63331,西脇,34.9983,134.9967
1106,63111,大屋,35.3317,134.665
1107,63321,福崎,34.95,134.7483
1108,63411,三田,34.895,135.2117
1109,63551,郡家,34.4667,134.8483
1110,63071,兎和野高原,35.4317,134.5833
1111,63461,三木,34.7767,135.0133
1112,63588,南淡,34.2183,134.72
1116,63517,神戸空港,34.6317,135.2233
1117,63477,西宮,34.75,135.335
1118,64036,奈良,34.6933,135.8267
1119,64041,針,34.605,135.9533
1120,64056,田原本,34.555,135.785
1121,64076,曽爾,34.5217,136.1583
1122,64101,大宇陀,34.4883,135.9317
1124,64127,五條,34.38,135.73
1130,64261,玉置山,33.9267,135.83
1131,64206,上北山,34.1367,136.005
1132,64227,風屋,34.045,135.7867
1134,64091,葛城,34.4883,135.7033
1136,64136,吉野,34.3783,135.9
1137,64161,天川,34.27,135.8833
1138,65021,葛城山,34.3467,135.4367
1139,65042,和歌山,34.2283,135.1633
1141,65061,高野山,34.2217,135.59
1142,65127,護摩壇山,34.04,135.5667
1145,65276,新宮,33.6867,135.97
1147,65321,日置川,33.605,135.48
1148,65356,潮岬,33.45,135.7567
1149,65256,栗栖川,33.7917,135.5133
1150,65106,湯浅,34.035,135.1817
1151,65121,清水,34.0867,135.425
1152,65226,本宮,33.8367,135.7733
1153,65162,龍神,33.945,135.5567
1154,65311,色川,33.675,135.8483
1155,65026,かつらぎ,34.31,135.5283
1156,65306,西川,33.6383,135.71
1157,65036,友ケ島,34.28,135.0
1158,65201,川辺,33.8933,135.2167
1159,65288,南紀白浜,33.6617,135.3633
1162,66136,今岡,35.0983,134.325
1163,66171,久世,35.0683,133.7533
1164,66186,津山,35.0633,134.0083
1165,66221,新見,34.9433,133.5183
1167,66251,赤磐,34.9183,134.0817
1168,66276,陣山,34.8283,133.5233
1170,66296,福渡,34.8667,133.9033
1171,66306,和気,34.815,134.1833
1172,66381,佐屋,34.685,133.445
1173,66391,矢掛,34.6167,133.6183
1174,66408,岡山,34.66,133.9167
1175,66421,虫明,34.6817,134.2067
1176,66446,倉敷,34.59,133.7683
1177,66501,玉野,34.4867,133.95
1178,66481,笠岡,34.5017,133.495
1179,66226,下呰部,34.965,133.6283
1180,66336,高梁,34.7917,133.61
1181,66127,奈義,35.1117,134.17
1182,66046,上長田,35.2967,133.725
1183,66091,千屋,35.1033,133.435
1184,66056,恩原,35.3,133.9867
1185,66346,日応寺,34.7567,133.855
1186,66112,富,35.1783,133.805
1187,66287,吉備中央,34.8167,133.705
1188,66237,旭西,34.9617,133.8117
1189,67026,道後山,35.0567,133.1883
1192,67106,三次,34.8117,132.85
1193,67116,庄原,34.86,133.0233
1194,67151,大朝,34.7683,132.4633
1195,67212,加計,34.61,132.32
1197,67251,上下,34.6933,133.1167
1198,67271,内黒山,34.5967,132.1767
1199,67316,世羅,34.5833,133.05
1201,67376,東広島,34.4167,132.7
1202,67401,福山,34.4467,133.2467
1203,67437,広島,34.3983,132.4617
1204,67461,竹原,34.33,132.9817
1205,67471,生口島,34.2783,133.1233
1206,67496,大竹,34.2217,132.22
1207,67511,呉,34.24,132.55
1208,67566,倉橋,34.0917,132.4883
1209,67016,高野,35.0333,132.9017
1210,67126,東城,34.895,133.2767
1211,67231,甲田,34.695,132.76
1212,67292,三入,34.545,132.53
1213,67326,府中,34.5617,133.2317
1216,67371,志和,34.4983,132.66
1217,67211,王泊,34.6983,132.3117
1218,67136,八幡,34.7083,132.1733
1219,67191,油木,34.7633,133.2783
1220,67421,廿日市津田,34.365,132.19
1221,67386,本郷,34.435,132.9183
1222,67351,佐伯湯来,34.4983,132.29
1223,67217,都志見,34.6467,132.4433
1224,67052,君田,34.9283,132.83
1225,67161,美土里,34.7217,132.655
1226,67306,安宿,34.5667,132.8383
1227,67576,呉市蒲刈,34.165,132.7483
1228,68022,西郷,36.2033,133.3333
1230,68091,鹿島,35.52,133.0217
1231,68121,斐川,35.4133,132.89
1232,68132,松江,35.4567,133.065
1233,68166,大東,35.3183,132.965
1234,68246,大田,35.19,132.4967
1235,68261,掛合,35.1983,132.8167
1236,68276,横田,35.1733,133.1033
1238,68351,川本,34.9767,132.4917
1239,68376,浜田,34.8967,132.07
1240,68421,三隅,34.7883,131.9583
1241,68462,益田,34.6767,131.8433
1244,68516,津和野,34.4617,131.77
1245,68206,佐田,35.2217,132.7233
1246,68346,桜江,34.9533,132.3333
1247,68401,瑞穂,34.8533,132.53
1248,68181,伯太,35.35,133.2733
1249,68436,波佐,34.78,132.1967
1250,68501,匹見,34.5717,132.0167
1251,68056,海士,36.0967,133.0967
1252,68156,出雲,35.3317,132.73
1253,68306,赤名,35.0017,132.7117
1254,68431,弥栄,34.7767,132.1083
1256,68286,福光,35.07,132.3317
1258,68046,西郷岬,36.1783,133.3233
1259,68456,高津,34.675,131.79
1260,68541,吉賀,34.3917,131.8933
1261,69006,境,35.5433,133.235
1262,69041,青谷,35.52,133.9967
1263,69122,鳥取,35.4867,134.2383
1264,69061,岩井,35.5583,134.36
1265,69076,米子,35.4333,133.3383
1266,69101,倉吉,35.4733,133.8383
1269,69152,大山,35.3933,133.5367
1271,69246,智頭,35.2633,134.24
1273,69161,関金,35.3783,133.7567
1274,69196,若桜,35.3333,134.405
1275,69021,塩津,35.5233,133.5667
1276,69271,茶屋,35.1867,133.23
1277,69181,佐治,35.3283,134.1133
1278,69222,江尾,35.2883,133.4833
1279,69111,鹿野,35.4133,134.0167
1280,69052,湖山,35.53,134.165
1282,71066,池田,34.0233,133.7967
1283,71106,徳島,34.0667,134.5733
1286,71266,日和佐,33.7317,134.5383
1288,71087,穴吹,34.04,134.1567
1289,71211,福原旭,33.8783,134.3883
1290,71231,蒲生田,33.8367,134.7417
1291,71191,京上,33.8667,133.9033
1292,71136,半田,33.99,134.0367
1293,71251,木頭,33.7717,134.205
1296,71291,海陽,33.6117,134.355
1297,72061,内海,34.4717,134.2733
1298,72086,高松,34.3167,134.0533
1299,72111,多度津,34.275,133.7517
1300,72121,滝宮,34.2367,133.9233
1301,72146,引田,34.2133,134.4067
1302,72176,竜王山,34.1133,134.05
1303,72161,財田,34.12,133.7717
1304,72126,香南,34.2133,134.015
1305,73001,大三島,34.25,133.0067
1306,73071,玉川,34.0183,132.94
1307,73136,新居浜,33.96,133.2817
1308,73151,四国中央,33.9817,133.5817
1309,73166,松山,33.8433,132.7767
1310,73231,上林,33.7383,132.89
1311,73247,成就社,33.795,133.1317
1312,73256,長浜,33.6167,132.48
1313,73271,中山,33.6383,132.7083
1314,73276,久万,33.6633,132.895
1315,73321,獅子越峠,33.5433,132.8317
1316,73351,八幡浜,33.4483,132.4333
1317,73442,宇和島,33.2267,132.5517
1318,73516,御荘,32.9633,132.57
1319,73126,西条,33.915,133.08
1320,73306,大洲,33.5083,132.535
1322,73406,宇和,33.3667,132.5033
1323,73076,今治,34.0767,132.99
1324,73152,富郷,33.915,133.51
1325,73446,近永,33.2533,132.675
1326,73341,瀬戸,33.4467,132.2567
1327,73168,松山南吉田,33.8267,132.6983
1328,74071,本山,33.7533,133.575
1329,74126,繁藤,33.6783,133.685
1330,74166,佐川,33.5117,133.2717
1332,74181,高知,33.5667,133.5483
1335,74238,鳥形山,33.48,133.0833
1336,74237,船戸,33.4167,133.0883
1337,74271,安芸,33.4883,133.9333
1338,74311,須崎,33.385,133.2767
1339,74336,佐喜浜,33.3933,134.205
1340,74361,窪川,33.2067,133.1283
1341,74372,室戸岬,33.2517,134.1767
1343,74391,大正,33.1933,132.9717
1344,74447,宿毛,32.92,132.695
1345,74456,中村,32.99,132.92
1346,74516,清水,32.7217,133.01
1347,74296,梼原,33.39,132.9217
1348,74276,田野,33.4267,134.0067
1349,74101,池川,33.6083,133.1683
1350,74136,大栃,33.6983,133.875
1351,74436,佐賀,33.0783,133.1017
1352,74381,江川崎,33.17,132.7917
1353,74187,後免,33.59,133.6433
1354,74151,魚梁瀬,33.615,134.1083
1355,74056,本川,33.765,133.3383
1356,74188,南国日章,33.545,133.6683
1357,74506,三崎,32.795,132.8717
1358,81011,須佐,34.615,131.6233
1359,81071,萩,34.41,131.405
1360,81151,徳佐,34.3983,131.725
1362,81196,秋吉台,34.235,131.3067
1364,81231,広瀬,34.2617,131.9517
1365,81266,豊田,34.1867,131.0767
1367,81286,山口,34.16,131.4533
1368,81371,防府,34.04,131.5333
1369,81386,下松,34.0217,131.8733
1370,81428,下関,33.9483,130.925
1371,81436,宇部,33.93,131.2783
1372,81486,安下庄,33.9033,132.2917
1373,81397,玖珂,34.095,132.075
1374,81116,油谷,34.37,131.055
1375,81321,岩国,34.155,132.1783
1377,81481,柳井,33.9583,132.1133
1378,81167,羅漢山,34.35,132.0633
1380,81301,和田,34.1483,131.735
1381,81141,篠生,34.3033,131.5767
1382,81228,鹿野,34.225,131.815
1383,81271,東厚保,34.1183,131.1817
1384,82056,八幡,33.8517,130.7433
1386,82101,行橋,33.7117,130.975
1388,82136,飯塚,33.6517,130.6933
1389,82171,前原,33.56,130.1917
1390,82182,福岡,33.5817,130.375
1392,82261,朝倉,33.405,130.695
1393,82272,英彦山,33.4883,130.9233
1394,82306,久留米,33.3017,130.4917
1395,82316,耳納山,33.2917,130.625
1396,82317,黒木,33.2233,130.6467
1397,82361,大牟田,33.0067,130.4667
1398,82046,宗像,33.8083,130.5383
1400,82331,柳川,33.16,130.4033
1401,82206,添田,33.56,130.8533
1402,82191,太宰府,33.5133,130.5
1403,82186,博多,33.5833,130.4517
1405,82068,空港北町,33.845,131.035
1406,82241,早良脇山,33.4883,130.3533
1408,83051,中津,33.5867,131.245
1409,83061,豊後高田,33.57,131.4333
1410,83126,武蔵,33.4783,131.7367
1412,83137,日田,33.3217,130.9283
1413,83201,湯布院,33.2533,131.3467
1414,83216,大分,33.235,131.6183
1415,83226,佐賀関,33.2483,131.865
1419,83341,犬飼,33.065,131.6317
1420,83371,竹田,32.9733,131.3983
1422,83401,佐伯,32.95,131.9017
1424,83476,蒲江,32.795,131.9233
1425,83106,院内,33.42,131.3167
1426,83191,玖珠,33.2917,131.155
1427,83286,臼杵,33.1233,131.805
1428,83096,耶馬渓,33.445,131.115
1429,83021,国見,33.675,131.59
1430,83431,宇目,32.845,131.675
1432,83121,杵築,33.4167,131.5967
1433,83242,椿ヶ鼻,33.1917,130.915
1435,84072,厳原,34.1967,129.2917
1436,84171,平戸,33.36,129.55
1437,84183,松浦,33.3417,129.7117
1439,84266,佐世保,33.1583,129.7267
1440,84356,大瀬戸,32.9483,129.6333
1441,84361,長浦岳,32.9083,129.7383
1443,84441,諫早,32.8433,130.025
1444,84496,長崎,32.7333,129.8667
1445,84519,雲仙岳,32.7367,130.2617
1446,84536,福江,32.6933,128.8267
1447,84561,口之津,32.6117,130.1933
1448,84523,島原,32.7417,130.3733
1450,84371,大村,32.9167,129.9133
1451,84341,有川,32.9817,129.1183
1452,84121,芦辺,33.8,129.7217
1453,84596,野母崎,32.5783,129.74
1458,84012,鰐浦,34.6983,129.445
1459,84122,石田,33.7483,129.785
1460,84537,上大津,32.665,128.8317
1461,84236,小値賀,33.19,129.09
1462,84286,頭ヶ島,33.0133,129.1917
1463,84076,美津島,34.285,129.33
1468,85142,佐賀,33.265,130.305
1469,85166,白石,33.1833,130.1483
1470,85161,嬉野,33.1167,129.995
1472,85116,伊万里,33.2667,129.8783
1473,85176,川副,33.1483,130.3017
1474,85033,唐津,33.4583,129.955
1475,85106,鳥栖,33.385,130.5167
1476,85046,北山,33.4133,130.22
1477,86006,鹿北,33.115,130.6917
1478,86066,南小国,33.1033,131.0667
1479,86086,岱明,32.915,130.5117
1480,86101,菊池,32.9467,130.7817
1482,86141,熊本,32.8133,130.7067
1484,86156,阿蘇山,32.88,131.0733
1485,86161,高森,32.8217,131.125
1487,86236,甲佐,32.645,130.8083
1488,86271,松島,32.515,130.4467
1490,86316,本渡,32.4683,130.18
1491,86336,八代,32.4733,130.6067
1492,86467,人吉,32.2167,130.755
1493,86491,牛深,32.1967,130.0267
1496,86146,益城,32.8367,130.855
1497,86451,水俣,32.205,130.4067
1498,86478,多良木,32.295,130.95
1499,86477,上,32.225,130.905
1500,86396,田浦,32.3633,130.5083
1501,86216,三角,32.6117,130.4783
1502,86481,湯前横谷,32.2633,131.045
1506,86111,阿蘇乙姫,32.94,131.04
1507,86351,五木,32.395,130.8267
1508,86407,山江,32.3017,130.7467
1509,86181,宇土,32.7,130.6567
1510,86461,一勝地,32.245,130.645
1512,86197,山都,32.7117,130.9583
1513,87041,高千穂,32.7117,131.29
1516,87141,延岡,32.5817,131.6567
1518,87181,日向,32.4083,131.6
1520,87292,高鍋,32.1233,131.5267
1521,87301,加久藤,32.0467,130.81
1522,87331,西都,32.0617,131.4133
1523,87346,えびの,31.945,130.84
1524,87352,小林,32.0,130.955
1525,87361,野尻,31.9567,131.1567
1526,87371,国富,32.0067,131.2967
1527,87376,宮崎,31.9383,131.4133
1529,87411,青島,31.8033,131.4583
1530,87426,都城,31.73,131.08
1532,87492,油津,31.5783,131.4067
1533,87501,串間,31.465,131.22
1534,87066,古江,32.7117,131.82
1535,87461,深瀬,31.6367,131.25
1537,87127,諸塚,32.5167,131.335
1538,87231,西米良,32.23,131.1517
1539,87071,鞍岡,32.6433,131.1567
1540,87206,神門,32.385,131.3317
1541,87136,北方,32.5617,131.525
1543,87412,赤江,31.8767,131.4483
1544,87251,都農,32.2833,131.5417
1545,87086,日之影,32.6817,131.4067
1546,87356,高原,31.9283,131.0067
1547,87391,山田,31.8133,131.0383
1549,88061,阿久根,32.0267,130.2
1551,88081,大口,32.0467,130.6267
1553,88101,紫尾山,31.98,130.3667
1554,88107,さつま柏原,31.9167,130.455
1555,88131,中甑,31.835,129.865
1556,88151,川内,31.835,130.315
1557,88166,溝辺,31.8033,130.7183
1558,88211,八重山,31.7467,130.4383
1559,88261,東市来,31.6683,130.3267
1561,88317,鹿児島,31.5533,130.5467
1563,88371,加世田,31.415,130.325
1564,88392,吉ケ別府,31.46,130.86
1566,88432,喜入,31.3867,130.54
1568,88466,枕崎,31.2717,130.2933
1569,88486,指宿,31.2483,130.6367
1571,88506,内之浦,31.2767,131.055
1572,88612,種子島,30.72,130.9817
1573,88621,中種子,30.605,130.9917
1574,88666,上中,30.4067,130.9
1575,88706,尾之間,30.2333,130.555
1576,88836,名瀬,28.3783,129.495
1577,88686,屋久島,30.385,130.6583
1578,88971,沖永良部,27.4317,128.705
1579,88066,出水,32.0933,130.3517
1580,88286,牧之原,31.6617,130.8433
1581,88406,志布志,31.4783,131.095
1582,88442,鹿屋,31.39,130.8633
1583,88901,古仁屋,28.1433,129.315
1585,88536,田代,31.1983,130.8433
1586,88956,伊仙,27.6767,128.9733
1587,88331,輝北,31.5883,130.855
1588,88341,大隅,31.58,131.005
1589,88551,佐多,31.0933,130.69
1590,88447,肝付前田,31.34,130.9383
1591,88986,与論島,27.0433,128.4017
1592,88851,喜界島,28.32,129.9267
1593,88821,笠利,28.43,129.7117
1594,88736,中之島,29.8383,129.8667
1595,88931,天城,27.835,128.88
1596,88176,霧島牧園,31.885,130.82
1597,91021,奥,26.835,128.2717
1600,91107,名護,26.5933,127.965
1602,91121,読谷,26.405,127.7417
1603,91161,胡屋,26.3267,127.805
1604,91197,那覇,26.2067,127.685
1605,91241,糸数,26.1533,127.765
1607,94081,石垣島,24.3367,124.1633
1608,94001,伊原間,24.5083,124.28
1609,91011,伊是名,26.9483,127.94
1610,93041,宮古島,24.7933,125.2767
1611,91146,久米島,26.3367,126.8033
1612,91181,渡嘉敷,26.21,127.3633
1615,93051,城辺,24.7433,125.41
1616,94036,川平,24.4667,124.14
1617,94101,大原,24.265,123.8717
1618,94062,西表島,24.4267,123.765
1619,94017,与那国島,24.4667,123.01
1620,94116,波照間,24.055,123.7683
1621,92011,南大東(南大東島),25.8283,131.2267
1622,91066,本部,26.685,127.8983
1623,91081,東,26.6317,128.1533
1624,91236,安次嶺,26.195,127.645
1625,93042,鏡原,24.7817,125.295
1626,94082,真栄里,24.3433,124.1867
1627,93012,下地,24.8267,125.1433
1628,93062,仲筋,24.6533,124.675
1629,94011,所野,24.4667,122.9783
1630,94121,志多阿原,24.0583,123.8033
1631,91096,粟国,26.5917,127.24
1632,91216,慶良間,26.1683,127.2933
1633,92006,北大東,25.9433,131.3267
1634,92012,旧東,25.8467,131.2633
1635,91141,北原,26.3633,126.7133
1636,91046,国頭,26.7283,128.1783
1637,91166,宮城島,26.3633,127.9733
